,Name,Url,County,Sites,Average_rent,Unnamed: 0,FullstreetAddress,Latitude,Longitude
0,Pridnia's Mobile Home Park,https://www.mhvillage.com/parks/15755, Alcona ,N/A,N/A,0,"116 West Church, Harrisville, MI, 48740",44.68205,-83.39782
1,Ausable Mobile Home Village,https://www.mhvillage.com/parks/15815, Iosco ,15,N/A,465,"331 First Street, Oscoda, MI, 48750",44.43481,-83.50601
2,Ossineke Mobile Home Park,https://www.mhvillage.com/parks/15757, Montmorency ,12,N/A,815,"Block 1, Old Ossineke Road, Ossineke, MI, 49766",44.9352,-83.43083
3,Rose Lane Trailer Court,https://www.mhvillage.com/parks/15818, Iosco ,35,N/A,468,"4263 Bissionette, Oscoda, MI, 48750",44.43481,-83.50601
4,Van Ettan Village,https://www.mhvillage.com/parks/569, Iosco ,32,N/A,469,"4385 Van Ettan Dam Road, Oscoda, MI, 48750",44.43481,-83.50601
5,Hubbard Lake Trailer Park,https://www.mhvillage.com/parks/541, Oscoda ,N/A,N/A,938,"7298 Hurbert Road, Hubbard Lake, MI, 49747",44.85834,-83.6389
6,Oscoda Mobile Home Park,https://www.mhvillage.com/parks/15819, Iosco ,N/A,N/A,470,"6445 Seminole Street, Oscoda, MI, 48750",44.43481,-83.50601
7,Riverview Mobile Home Park,https://www.mhvillage.com/parks/15949, Montmorency ,N/A,N/A,828,"13021 Us 23 South, Ossineke, MI, 49766",44.88774,-83.43127
8,Village Court,https://www.mhvillage.com/parks/15760, Montmorency ,N/A,N/A,831,"2300 Papin Street, Ossineke, MI, 49766",44.9352,-83.43083
9,Island View Estates,https://www.mhvillage.com/parks/15753, Luce ,37,N/A,643,"801 Prospect Street, Munising, MI, 49862",46.40564,-86.61539
10,Pioneer Village,https://www.mhvillage.com/parks/15829, Marquette ,90,N/A,690,"777 Pioneer Road, Site 169, Marquette, MI, 49855",46.52561,-87.41541
11,Silver Creek Estates,https://www.mhvillage.com/parks/15832, Marquette ,90,230,691,"627 Willow Road, Marquette, MI, 49855",46.56109,-87.36552
12,Brier's Mobile Home Court,https://www.mhvillage.com/parks/556, Delta ,10,N/A,269,"8467 P5 Road, Gladstone, MI, 49837",45.88084,-87.1059
13,Oak Bluff Estates,https://www.mhvillage.com/parks/15908, Delta ,175,N/A,270,"2722 South Hill Road, Gladstone, MI, 49837",45.88084,-87.1059
14,Birch Grove Mobile Home Community,https://www.mhvillage.com/parks/15838, Marquette ,80,N/A,693,"500 Pioneer Road, Marquette, MI, 49855",46.56109,-87.36552
15,NorthernAir Mobile Estates,https://www.mhvillage.com/parks/15841, Marquette ,150,N/A,694,"642 South Mackinac Lane, Gwinn, MI, 49841",46.32394,-87.49016
16,Whispering Pines Mobile Home Park,https://www.mhvillage.com/parks/15787, Delta ,N/A,N/A,272,"8741 0.8 Lane, Gladstone, MI, 49837",45.88084,-87.1059
17,553 Mobile Estates,https://www.mhvillage.com/parks/15828, Marquette ,N/A,N/A,696,"Box 100 Star Route, Gwinn, MI, 49841",46.32394,-87.49016
18,Lake Bluff Retirement Village,https://www.mhvillage.com/parks/100639, Delta ,N/A,N/A,273,"401 Kenneally Blvd., Gladstone, MI, 49837",45.88084,-87.1059
19,Pine Acres Trailer Court,https://www.mhvillage.com/parks/15830, Marquette ,N/A,N/A,697,"3000 Us 41 South, Marquette, MI, 49855",46.55131,-87.45097
20,Whitefish Hill Trailer Court,https://www.mhvillage.com/parks/15786, Delta ,N/A,N/A,275,"8455 Us Highway 2, Rapid River, MI, 49878",45.92293,-86.93786
21,Hunters Glen,https://www.mhvillage.com/parks/29480, Allegan ,280,N/A,21,"1132 Hunters Glen Boulevard, Wayland, MI, 49348",42.6919,-85.62058
22,Dover Farms,https://www.mhvillage.com/parks/30327, Allegan ,60,435,23,"1590 Dover Drive, Martin, MI, 49070",42.54385,-85.62228
23,Dumont Creek Estates,https://www.mhvillage.com/parks/15115, Allegan ,75,300,33,"1925 Laura Street, Allegan, MI, 49010",42.56072,-85.88961
24,Gun Lake Manufactured Home Community,https://www.mhvillage.com/parks/104895, Allegan ,59,N/A,24,"19985 Marsh Road, Shelbyville, MI, 49344",42.5897,-85.53932
25,Country Meadows,https://www.mhvillage.com/parks/516, Wayne ,577,N/A,1162,"3211 Will Carleton Road, Flat Rock, MI, 48134",42.09412,-83.32407
26,Windsor Woods Village,https://www.mhvillage.com/parks/15869, Allegan ,314,377,22,"1135 West Superior Street, Wayland, MI, 49348",42.6919,-85.62058
27,Rabbit River ,https://www.mhvillage.com/parks/15125, Allegan ,102,N/A,26,"3471 Homer Drive, Wayland, MI, 49348",42.6919,-85.62058
28,Yankee Springs Meadows,https://www.mhvillage.com/parks/456, Allegan ,284,N/A,27,"1330 North Patterson Road, Wayland, MI, 49348",42.6919,-85.62058
29,Watson Mobile Home Community,https://www.mhvillage.com/parks/427, Allegan ,176,327,28,"1362 East M-89, Otsego, MI, 49078",42.47605,-85.72572
30,Circle Inn Mobile Park,https://www.mhvillage.com/parks/452, Allegan ,20,N/A,29,"11985 Marsh Road, Shelbyville, MI, 49344",42.5926,-85.58797
31,Country Acres Mobile Home Park,https://www.mhvillage.com/parks/240, Ottawa ,100,N/A,974,"A-5904 142nd Avenue, Holland, MI, 49423",42.72504,-86.12528
32,Dogwood Manor,https://www.mhvillage.com/parks/15114, Allegan ,76,N/A,31,"5289 124th Avenue, Fennville, MI, 49408",42.59484,-86.06449
33,Douglas Estates,https://www.mhvillage.com/parks/242, Allegan ,175,405,32,"2734 Blue Star Highway, Fennville, MI, 49408",42.6191,-86.21173
34,Dunlop's Orchard Mobile Home Park,https://www.mhvillage.com/parks/15565, Allegan ,22,460,34,"12703 Pine Lake Rd, Plainwell, MI, 49080",42.50233,-85.53583
36,Lake Park Trailer Resort,https://www.mhvillage.com/parks/15121, Allegan ,60,N/A,36,"2126 Lakeshore Drive, Fennville, MI, 49408",42.5766,-86.11992
37,Maple Grove Estates,https://www.mhvillage.com/parks/15916, Lapeer ,210,415,574,"2070 South Almont Road, Imlay City, MI, 48444",43.06429,-83.04903
38,Orchard Hills Village,https://www.mhvillage.com/parks/15903, Allegan ,167,380,38,"2400 56th Street, Fennville, MI, 49408",42.59692,-86.09719
40,Pine Crest Mobile Villa,https://www.mhvillage.com/parks/15126, Allegan ,82,N/A,40,"1160 West Bridge Street, Plainwell, MI, 49080",42.47683,-85.57617
41,Pine Ridge Community,https://www.mhvillage.com/parks/15957, Allegan ,49,225,41,"4629 134th Avenue, Hamilton, MI, 49419",42.66761,-85.9991
42,Riverside Estates Mobile Home Community,https://www.mhvillage.com/parks/58541, Allegan ,41,445,42,"6200 Arrowhead Drive, Fennville, MI, 49408",42.5766,-86.11992
67,Huron Lake Estates,https://www.mhvillage.com/parks/15989, Presque Isle ,36,N/A,981,"1121 Bare Point Road, Alpena, MI, 49707",45.07332,-83.47292
68,Lake Shore Estates,https://www.mhvillage.com/parks/538, Presque Isle ,58,N/A,983,"8924 West Long Lake Road, Alpena, MI, 49707",45.07332,-83.47292
69,Alpena Mobile Home Court,https://www.mhvillage.com/parks/15759, Presque Isle ,N/A,N/A,984,"624 Ripley Boulevard, Alpena, MI, 49707",45.07332,-83.47292
70,Long Lake Trailer Court,https://www.mhvillage.com/parks/15758, Presque Isle ,N/A,N/A,987,"10080 Us 23 North, Alpena, MI, 49707",45.1942,-83.43574
71,Mancelona Chamber Park,https://www.mhvillage.com/parks/15939, Otsego ,15,160,952,"Franklin Street, Mancelona, MI, 49659",44.923,-85.02892
72,Vacation Village Mobile Home Park,https://www.mhvillage.com/parks/15761, Leelanau ,65,417,593,"601 Shadywood, Elk Rapids, MI, 49629",44.90162,-85.39481
73,Evergreen MHP,https://www.mhvillage.com/parks/548, Otsego ,70,N/A,953,"707 State Street, East Jordan, MI, 49727",45.14116,-85.06066
74,Chain O' Lakes Campground & Mobile Home Park,https://www.mhvillage.com/parks/15762, Kalkaska ,15,N/A,543,"7231 S M 88 Highway, Bellaire, MI, 49615",44.96394,-85.20269
75,Town and Country,https://www.mhvillage.com/parks/15709, Leelanau ,192,398,587,"849 Manor Lane, Traverse City, MI, 49686",44.80961,-85.48382
76,Fox Run,https://www.mhvillage.com/parks/128022, Otsego ,140,N/A,954,"141 Fox Run Street, Boyne City, MI, 49712",45.22139,-85.00857
77,Lakeview Village Mobile Home Park,https://www.mhvillage.com/parks/15769, Otsego ,152,250,951,"526 North Lake Street, Boyne City, MI, 49712",45.19724,-85.01066
78,Woodcreek,https://www.mhvillage.com/parks/15992, Leelanau ,219,500,594,"501 Woodcreek Boulevard, Traverse City, MI, 49686",44.80961,-85.48382
79,Valley Mobile Home Park,https://www.mhvillage.com/parks/15942, Kalkaska ,10,N/A,538,"1268 Wood Road, Rapid City, MI, 49676",44.86895,-85.28593
80,Cherryland Mobile Home Park,https://www.mhvillage.com/parks/15723, Leelanau ,52,N/A,596,"3011 North Garfield, Traverse City, MI, 49686",44.80961,-85.48382
81,Valleywood Cove,https://www.mhvillage.com/parks/92821, Leelanau ,N/A,N/A,598,"996 Garfield Woods Drive Suite D, Traverse City, MI, 49686",44.80961,-85.48382
82,O & M Mobile Home Park,https://www.mhvillage.com/parks/15616, Ogemaw ,40,N/A,908,"1090 Michigan 76, Alger, MI, 48610",44.14528,-84.19386
83,Au Gres Harbor Mobile Court,https://www.mhvillage.com/parks/15617, Arenac ,N/A,N/A,63,"330 South Main Street, Au Gres, MI, 48703",44.05829,-83.66189
84,Lakeshore Village,https://www.mhvillage.com/parks/15612, Gladwin ,29,N/A,346,"4061 Lakeshore Drive, Gladwin, MI, 48624",44.07468,-84.45566
85,Lakefront Estates,https://www.mhvillage.com/parks/483, Gladwin ,68,N/A,347,"385 West Brown Street, Beaverton, MI, 48612",43.88426,-84.45606
86,Pleasant Beach Mobile Home Resort,https://www.mhvillage.com/parks/15582, Gladwin ,101,280,348,"4991 Wixom Road, Beaverton, MI, 48612",43.88426,-84.45606
87,Westgate Trails,https://www.mhvillage.com/parks/15448, Bay ,50,250,101,"Lawrence & Horn Roads, Pinconning, MI, 48650",43.8457,-84.02266
88,Greenbriar Village,https://www.mhvillage.com/parks/15611, Gladwin ,69,N/A,349,"1305 North Springs Street, Gladwin, MI, 48624",44.07468,-84.45566
89,Tawas River Trailer Park,https://www.mhvillage.com/parks/15816, Iosco ,65,N/A,466,"560 East M-55, Tawas City, MI, 48763",44.2254,-83.61976
90,Twin Pines Mobile Home Park,https://www.mhvillage.com/parks/15849, Oscoda ,30,N/A,934,"1766 Rau Road, West Branch, MI, 48661",44.34144,-84.20302
91,Wixom Waters,https://www.mhvillage.com/parks/16041, Midland ,51,N/A,747,"Po Box 222, Edenville, MI, 48620",43.80626,-84.3796
92,Country Village Estates,https://www.mhvillage.com/parks/15848, Oscoda ,53,N/A,936,"2522 Woodlawn Drive, West Branch, MI, 48661",44.34144,-84.20302
93,Riverview Mobile Park,https://www.mhvillage.com/parks/15613, Gladwin ,48,N/A,350,"2577 Lake Shore Drive, Gladwin, MI, 48624",44.07468,-84.45566
94,Gladwin Village,https://www.mhvillage.com/parks/15614, Gladwin ,N/A,N/A,351,"805 North Bowery Avenue, Gladwin, MI, 48624",44.07468,-84.45566
95,Key Mobile Home Court,https://www.mhvillage.com/parks/15615, Gladwin ,N/A,N/A,352,"221 North Lakeview Drive, Gladwin, MI, 48624",44.07468,-84.45566
96,L'anse Mobile Home Court,https://www.mhvillage.com/parks/15763, Houghton ,40,N/A,400,"99 Kelly Street, L Anse, MI, 49946",46.77943,-88.24087
97,Sunnyside & Forest Lane MHC,https://www.mhvillage.com/parks/15840, Marquette ,134,N/A,692,"728 N. Lake Dr, Ishpeming, MI, 49849",46.48779,-87.70757
98,Forest Lane Mobile Park,https://www.mhvillage.com/parks/15837, Marquette ,20,N/A,695,"3310 County Road 496, Ishpeming, MI, 49849",46.50624,-87.72879
99,Beachview Mobile Court,https://www.mhvillage.com/parks/15804, Ontonagon ,20,N/A,913,"1845 Jasberg Street, Hancock, MI, 49930",47.18742,-88.54504
100,Birch Grove,https://www.mhvillage.com/parks/65356, Ontonagon ,31,N/A,914,"400 Elevation St, Hancock, MI, 49930",47.18742,-88.54504
101,Fob's Shady Acres,https://www.mhvillage.com/parks/571, Iron ,N/A,N/A,472,"1501 Us 2 West, Crystal Falls, MI, 49920",46.09401,-88.3695
102,Hiawatha Country Estates,https://www.mhvillage.com/parks/15820, Ontonagon ,N/A,N/A,917,"220 Hiawatha Drive, Iron River, MI, 49935",46.20261,-88.7372
103,US 41 Trailer Court,https://www.mhvillage.com/parks/15833, Marquette ,N/A,N/A,698,"140 Midway Drive, Negaunee, MI, 49866",46.46324,-87.57237
104,Meadowstone Manufactured Home Community,https://www.mhvillage.com/parks/15986, Barry ,231,400,85,"1812 Lavender Dr, Hastings, MI, 49058",42.63246,-85.27397
105,Cider Mill Village,https://www.mhvillage.com/parks/15891, Barry ,258,N/A,84,"425 Cider Mill Drive, Middleville, MI, 49333",42.72148,-85.46037
106,Thornapple Lake Estates,https://www.mhvillage.com/parks/448, Barry ,215,295,86,"6335 Thornapple Lake Road, Nashville, MI, 49073",42.57761,-85.14295
107,Baltimore Terrace Mobile Home Park,https://www.mhvillage.com/parks/15564, Barry ,62,N/A,87,"1485 Sandy Circle, Hastings, MI, 49058",42.63877,-85.32057
108,Merlinos Hidden Valley Estates,https://www.mhvillage.com/parks/454, Barry ,78,N/A,88,"4777 Barber Road, Hastings, MI, 49058",42.63877,-85.32057
109,Pine Haven Subdivision,https://www.mhvillage.com/parks/16031, Barry ,N/A,N/A,89,"Pinedale, Hastings, MI, 49058",42.63877,-85.32057
110,Barry's Resort,https://www.mhvillage.com/parks/15566, Barry ,50,N/A,90,"2875 South Charlton Park Road, Hastings, MI, 49058",42.63877,-85.32057
112,Westshore Estates,https://www.mhvillage.com/parks/15356, Bay ,110,N/A,92,"3201 South Euclid Avenue, Bay City, MI, 48706",43.60941,-83.94517
113,Alpine Village Mobile Home Park,https://www.mhvillage.com/parks/15457, Bay ,120,380,93,"2959 East Alpine Boulevard, Bay City, MI, 48706",43.60941,-83.94517
114,White Birch Estates,https://www.mhvillage.com/parks/482, Osceola ,50,N/A,920,"411 Dailey Drive, Reed City, MI, 49677",43.88709,-85.50842
115,Westwood Village,https://www.mhvillage.com/parks/349, Bay ,240,400,95,"2904 Stratford, Bay City, MI, 48706",43.64101,-83.9348
116,Fairfield Manor,https://www.mhvillage.com/parks/430, Bay ,137,315,96,"1016 Parkside Boulevard, Bay City, MI, 48706",43.60941,-83.94517
117,Saginaw Bay Estates,https://www.mhvillage.com/parks/364, Bay ,309,310,97,"1760 Saginaw Bay Estates Dr, Essexville, MI, 48732",43.61837,-83.77667
118,Brentwood Estates,https://www.mhvillage.com/parks/15352, Bay ,150,N/A,98,"3278 Brentwood Drive, Bay City, MI, 48706",43.60941,-83.94517
120,Wenona Beach Estates,https://www.mhvillage.com/parks/15449, Bay ,184,310,100,"4444 National Avenue, Bay City, MI, 48706",43.60941,-83.94517
121,Willow Tree Village,https://www.mhvillage.com/parks/16027, Bay ,78,N/A,102,"3840 Riata Dr, Bay City, MI, 48706",43.63473,-83.89947
122,Bay Village Mobile Home Estates,https://www.mhvillage.com/parks/33824, Bay ,102,280,103,"1274 West Hampton Road, Essexville, MI, 48732",43.60686,-83.77368
123,Bayco Mobile Home Park,https://www.mhvillage.com/parks/15447, Bay ,61,N/A,104,"2836 East Biscayne Drive, Bay City, MI, 48706",43.60941,-83.94517
125,Pines Trailer Park,https://www.mhvillage.com/parks/15452, Bay ,29,N/A,106,"2080 South Huron Road, Kawkawlin, MI, 48631",43.68189,-84.00666
126,Shady Rest Mobile Home Park,https://www.mhvillage.com/parks/15355, Bay ,129,N/A,107,"3612 East Shod Street, Bay City, MI, 48706",43.60941,-83.94517
127,Linwood Mobile Home Park,https://www.mhvillage.com/parks/15454, Bay ,N/A,N/A,109,"1815 Pamela Drive, Linwood, MI, 48634",43.75989,-84.0515
128,Mulberry Place,https://www.mhvillage.com/parks/15453, Bay ,N/A,N/A,110,"2627 Broadway, Bay City, MI, 48708",43.56721,-83.82227
129,Harbor Village Community,https://www.mhvillage.com/parks/15766, Manistee ,17,N/A,684,"1208 Elm Street, Frankfort, MI, 49635",44.62474,-86.1894
130,Crystal Lake Mobile Home Park,https://www.mhvillage.com/parks/545, Manistee ,47,N/A,687,"6695 Spruce Drive, Benzonia, MI, 49616",44.578,-86.05958
131,Hillside Mobile Home Park,https://www.mhvillage.com/parks/543, Manistee ,N/A,N/A,689,"857 Glenn Avenue, Elberta, MI, 49628",44.61843,-86.22682
132,Meadow Lane,https://www.mhvillage.com/parks/512, Leelanau ,483,774,589,"4310 Meadowlane Drive, Traverse City, MI, 49684",44.78319,-85.72485
133,Suburban Estates Mobile Home Park,https://www.mhvillage.com/parks/15706, Leelanau ,75,365,588,"7230 Suburban Drive, Traverse City, MI, 49684",44.78319,-85.72485
134,"Burke Silver Lake View, LLC",https://www.mhvillage.com/parks/15748, Leelanau ,49,300,590,"5099 Silver Lake View Road, Traverse City, MI, 49684",44.78319,-85.72485
135,Dorsey's on Glen Lake,https://www.mhvillage.com/parks/15822, Leelanau ,54,N/A,585,"8648 South Dorsey Park Road, Empire, MI, 49630",44.83906,-86.03016
136,First Point Mobile Home Court,https://www.mhvillage.com/parks/33826, Leelanau ,53,N/A,591,"7903 Birchpoint Drive, Traverse City, MI, 49684",44.78319,-85.72485
137,Silver Shores Manufactured Home Community,https://www.mhvillage.com/parks/15749, Wexford ,200,415,1188,"1257 Overlook Drive, Traverse City, MI, 49685",44.67299,-85.68222
138,Buena Vista Estates,https://www.mhvillage.com/parks/15765, Wexford ,68,N/A,1189,"17426 Honor Highway, Interlochen, MI, 49643",44.63341,-85.84129
139,Kampvilla RV Park,https://www.mhvillage.com/parks/15827, Manistee ,40,N/A,683,"16632 Pleasanton Highway, Bear Lake, MI, 49614",44.48312,-86.11764
140,Pat's Place,https://www.mhvillage.com/parks/15740, Wexford ,20,N/A,1185,"2951 North 7 Road, Mesick, MI, 49668",44.41834,-85.69718
141,White Pines Mobile Home Park,https://www.mhvillage.com/parks/15752, Wexford ,33,N/A,1186,"Paul Drive, Mesick, MI, 49668",44.41834,-85.69718
142,R & R Chervenka,https://www.mhvillage.com/parks/15823, Leelanau ,N/A,N/A,597,"9640 Crain Hill Road, Traverse City, MI, 49684",44.78319,-85.72485
143,Warren Dunes Village,https://www.mhvillage.com/parks/15882, Berrien ,314,N/A,127,"11159 Red Arrow Highway, Bridgman, MI, 49106",41.93932,-86.56886
144,Pleasant View Estates,https://www.mhvillage.com/parks/15363, Van Buren ,209,420,1108,"7604 Red Arrow Highway, Watervliet, MI, 49098",42.17555,-86.2514
145,Silverbrook,https://www.mhvillage.com/parks/15964, Berrien ,176,400,129,"1000 West Wildflower, Niles, MI, 49120",41.84367,-86.25133
146,North Shore Estates,https://www.mhvillage.com/parks/15362, Berrien ,97,N/A,130,"1565 M 63 North, Benton Harbor, MI, 49022",42.12681,-86.33201
147,Hills Haven,https://www.mhvillage.com/parks/15470, Berrien ,94,N/A,126,"4205 Hills Haven Rd., Buchanan, MI, 49107",41.8788,-86.35676
148,Lakewood Estates,https://www.mhvillage.com/parks/15687, Ionia ,89,N/A,455,"1615 Tupperlake Street, Lake Odessa, MI, 48849",42.80836,-85.14312
149,Sand Hill Community,https://www.mhvillage.com/parks/15463, Berrien ,80,N/A,132,"5080 Saint Joseph Avenue, Stevensville, MI, 49127",42.00946,-86.51171
150,Riverside Estates,https://www.mhvillage.com/parks/414, Berrien ,87,N/A,133,"14566 North Red Bud Trail, Buchanan, MI, 49107",41.8549,-86.3692
151,Birchcrest Estates,https://www.mhvillage.com/parks/15475, Berrien ,110,N/A,134,"2330 East Main Street, Niles, MI, 49120",41.84367,-86.25133
152,Shawnee Community,https://www.mhvillage.com/parks/15344, Berrien ,161,N/A,135,"1558 West Shawnee Road, Baroda, MI, 49101",41.94965,-86.48023
153,Baroda Estates,https://www.mhvillage.com/parks/15476, Berrien ,151,N/A,136,"8836 Stevensville Baroda Road, Baroda, MI, 49101",41.94965,-86.48023
154,Country Acres Manufactured Home Community,https://www.mhvillage.com/parks/15465, Berrien ,64,N/A,137,"2615 Old Us 31, Niles, MI, 49120",41.87435,-86.28344
155,Franklin Woods,https://www.mhvillage.com/parks/15358, Berrien ,268,N/A,138,"1950 South 13th Street, Niles, MI, 49120",41.79377,-86.24637
156,Glen Aire Mobile Home Park,https://www.mhvillage.com/parks/15359, Berrien ,130,N/A,139,"1153 West Glenlord Road, Saint Joseph, MI, 49085",42.0621,-86.45045
157,Indian Lake Woods,https://www.mhvillage.com/parks/32642, Berrien ,14,435,140,"54750 Highland Dr, Eau Claire, MI, 49111",42.0012,-86.21993
158,Lakeshore Estates,https://www.mhvillage.com/parks/15360, Berrien ,98,320,141,"3017 Johnson Road, Stevensville, MI, 49127",42.00946,-86.51171
159,Lakeside Cabins Resort,https://www.mhvillage.com/parks/90505, Berrien ,225,304,142,"7650 Warren Woods Rd, Three Oaks, MI, 49128",41.81761,-86.6127
160,Niles Pines Mobile Estates,https://www.mhvillage.com/parks/15672, Berrien ,80,350,143,"900 Mobile Boulevard, Niles, MI, 49120",41.84367,-86.25133
161,Ontario Place,https://www.mhvillage.com/parks/411, Berrien ,130,407,144,"2006 Ontario Road, Niles, MI, 49120",41.84367,-86.25133
162,Ravine View Estates,https://www.mhvillage.com/parks/15461, Berrien ,158,N/A,145,"5100 Little Paw Paw Lake Road 6A, Coloma, MI, 49038",42.21045,-86.33474
163,Ravines Mobile Home Park,https://www.mhvillage.com/parks/15364, Berrien ,225,N/A,146,"2088 East Empire Avenue, Benton Harbor, MI, 49022",42.12681,-86.33201
164,River Springs Estates,https://www.mhvillage.com/parks/15466, Berrien ,198,360,147,"9387 Us Highway 31, Berrien Springs, MI, 49103",41.95442,-86.33053
178,Tallgrass an FR Community,https://www.mhvillage.com/parks/15577, Branch ,239,275,148,"260 East Garfield Avenue, Coldwater, MI, 49036",41.92576,-84.99497
179,North Trail Village,https://www.mhvillage.com/parks/16005, Branch ,42,225,149,"100 North Main Street, Quincy, MI, 49082",41.94902,-84.90112
180,Grand Village Mobile Home Park,https://www.mhvillage.com/parks/15572, Branch ,25,220,150,"598 Union City Road, Coldwater, MI, 49036",41.90647,-85.04304
181,Love's Lazy Lagoon,https://www.mhvillage.com/parks/84109, Branch ,61,116,151,"622 N Union City Rd, Coldwater, MI, 49036",41.90647,-85.04304
182,Raymond's Landing,https://www.mhvillage.com/parks/84111, Branch ,70,152,152,"259 Earl Helen Dr, Coldwater, MI, 49036",41.90647,-85.04304
183,Somerset Mobile Home Park,https://www.mhvillage.com/parks/15569, Branch ,56,255,153,"117 Burch Road, Coldwater, MI, 49036",41.90647,-85.04304
184,Trail Tree Village,https://www.mhvillage.com/parks/15933, Branch ,143,309,154,"175 North Michigan Avenue, Coldwater, MI, 49036",41.90647,-85.04304
185,Lakecrest Mobile Court,https://www.mhvillage.com/parks/15568, Branch ,23,N/A,155,"645 Lakecrest Drive, Coldwater, MI, 49036",41.90647,-85.04304
186,Turtle Lake,https://www.mhvillage.com/parks/42054, Branch ,N/A,N/A,156,"2101 9 Mile Road, Union City, MI, 49094",42.05908,-85.11405
187,Avra Estates II,https://www.mhvillage.com/parks/15718, Branch ,30,N/A,157,"27 West Garfield Avenue, Coldwater, MI, 49036",41.90647,-85.04304
188,Mobile Manor Park,https://www.mhvillage.com/parks/15570, Branch ,29,N/A,158,"104 First Street, Bronson, MI, 49028",41.87237,-85.15701
189,Apollo XI Mobile Home Park,https://www.mhvillage.com/parks/15578, Branch ,72,N/A,159,"550 East Chicago Street, Coldwater, MI, 49036",41.90647,-85.04304
190,Cambridge Village,https://www.mhvillage.com/parks/15571, Branch ,32,N/A,160,"748 Lott Road, Coldwater, MI, 49036",41.90647,-85.04304
191,Countryside Mobile Court,https://www.mhvillage.com/parks/15576, Branch ,24,N/A,161,"191 North Fillmore Court, Coldwater, MI, 49036",41.90647,-85.04304
192,Avra Estates,https://www.mhvillage.com/parks/15573, Branch ,143,294,162,"11 West Garfield Avenue, Coldwater, MI, 49036",41.90647,-85.04304
193,Kinsley Mobile Home Park,https://www.mhvillage.com/parks/460, Branch ,20,N/A,163,"587 Marshall Road, Coldwater, MI, 49036",41.90647,-85.04304
194,Cole's Chippewa Circle Mobile Home Park,https://www.mhvillage.com/parks/52245, Branch ,N/A,N/A,164,"356 Chippewa Drive, Sherwood, MI, 49089",42.00683,-85.21925
195,Green Acres Mobile Home Park,https://www.mhvillage.com/parks/52246, Branch ,N/A,N/A,165,"151 Wheatfield Drive, Sherwood, MI, 49089",42.00683,-85.21925
196,Indian Cove Mobile Home Park,https://www.mhvillage.com/parks/15575, Branch ,N/A,N/A,166,"2928 Matteson Lake, Bronson, MI, 49028",41.87237,-85.15701
197,Northmoor Estates,https://www.mhvillage.com/parks/37959, Branch ,N/A,N/A,167,"228 North Moor Drive, Coldwater, MI, 49036",41.90647,-85.04304
198,Thunderbird Village,https://www.mhvillage.com/parks/15524, Calhoun ,8,N/A,175,"1145 Harmonia, Springfield, MI, 49015",42.26167,-85.23882
199,Hickory Hills Village,https://www.mhvillage.com/parks/15515, Calhoun ,283,380,168,"10450 Six Mile Road, Battle Creek, MI, 49014",42.30294,-85.10537
200,Bedford Hills,https://www.mhvillage.com/parks/15311, Calhoun ,339,N/A,169,"110 Bejac Circle Drive, Battle Creek, MI, 49017",42.36071,-85.22936
201,Avenue A Mobile Home Park,https://www.mhvillage.com/parks/15365, Calhoun ,145,N/A,170,"1267 Avenue A, Springfield, MI, 49015",42.26167,-85.23882
202,Creek Valley Mobile Home Park,https://www.mhvillage.com/parks/434, Calhoun ,166,N/A,171,"79 Creek Valley Circle, Battle Creek, MI, 49017",42.39115,-85.19663
203,Glenmoor Village,https://www.mhvillage.com/parks/32836, Calhoun ,139,317,172,"3971 Capital Avenue SW #1, Battle Creek, MI, 49015",42.24515,-85.19336
204,Wildflower Crossing,https://www.mhvillage.com/parks/126426, Calhoun ,344,350,173,"1642 Alyssum Court, Albion, MI, 49224",42.26455,-84.77493
205,New Village Estates,https://www.mhvillage.com/parks/15733, Calhoun ,130,275,174,"430 South Byron, Homer, MI, 49245",42.15145,-84.82623
206,Avonwood Mobile Home Park,https://www.mhvillage.com/parks/15522, Calhoun ,55,N/A,176,"953 East Michigan Avenue, Battle Creek, MI, 49017",42.39115,-85.19663
207,Birchwood Place Mobile Home Park,https://www.mhvillage.com/parks/15518, Calhoun ,70,295,177,"3500 Q Drive South, Athens, MI, 49011",42.10945,-85.22203
208,Lighthouse On The Lake,https://www.mhvillage.com/parks/38053, Calhoun ,788,N/A,178,"1001 24 Mile Road, Homer, MI, 49245",42.15145,-84.82623
209,The Community of Rolling Hills,https://www.mhvillage.com/parks/15745, Calhoun ,343,349,179,"300 Morgan Road, Battle Creek, MI, 49017",42.39115,-85.19663
210,Twin Pines MHC,https://www.mhvillage.com/parks/15517, Calhoun ,73,N/A,180,"2701 Calhoun Road, Albion, MI, 49224",42.2941,-84.78798
211,Twin Valley Mobile Home Village,https://www.mhvillage.com/parks/15523, Calhoun ,36,N/A,181,"16555 F Drive South, Marshall, MI, 49068",42.26184,-84.94424
212,Spruce Tree Mobile Home Community,https://www.mhvillage.com/parks/15885, Calhoun ,80,288,182,"14200 - 18 1/2 Mile Road, Marshall, MI, 49068",42.26184,-84.94424
213,Bakers Mobile Home Park,https://www.mhvillage.com/parks/15310, Calhoun ,120,N/A,183,"1030 East Columbia Avenue, Battle Creek, MI, 49015",42.26167,-85.23882
214,Valley Garden Trailer Park,https://www.mhvillage.com/parks/15525, Calhoun ,38,700,184,"897 East Michigan, Battle Creek, MI, 49017",42.39115,-85.19663
215,Evergreen Oak Forest,https://www.mhvillage.com/parks/15516, Calhoun ,103,N/A,185,"20 Powell Street, Battle Creek, MI, 49014",42.30294,-85.10537
216,Sunrise Mobile Home Court,https://www.mhvillage.com/parks/431, Calhoun ,33,N/A,186,"15011 West Michigan Avenue, Marshall, MI, 49068",42.26184,-84.94424
217,Harper Commons MHC,https://www.mhvillage.com/parks/126502, Calhoun ,N/A,N/A,187,"993 East Michigan Avenue, Battle Creek, MI, 49014",42.3109,-85.13804
218,Rainbow Estates Mobile Park,https://www.mhvillage.com/parks/15520, Calhoun ,N/A,N/A,188,"875 East Michigan Avenue, Marshall, MI, 49068",42.26184,-84.94424
219,Edwardsburg Estates,https://www.mhvillage.com/parks/15585, Cass ,109,N/A,193,"69425 M-62, Edwardsburg, MI, 49112",41.7906,-86.08514
220,Colonial Acres Mobile Home Park,https://www.mhvillage.com/parks/15676, Cass ,108,370,189,"69205 Garver Lake, Edwardsburg, MI, 49112",41.7965,-86.04734
221,Beech Grove,https://www.mhvillage.com/parks/90393, Cass ,N/A,N/A,190,"51439 Michigan 40, Marcellus, MI, 49067",42.03379,-85.80274
222,Bluegill Lake MHP,https://www.mhvillage.com/parks/15730, Cass ,39,385,191,"400 East South Street, Marcellus, MI, 49067",42.03379,-85.80274
223,C&M Park,https://www.mhvillage.com/parks/15670, Cass ,26,N/A,192,"70710 Elkhart Rd., Edwardsburg, MI, 49112",41.77132,-86.05088
224,Rustic Acres Mobile Home Park,https://www.mhvillage.com/parks/15746, Cass ,70,N/A,194,"19250 Stateline Road, Edwardsburg, MI, 49112",41.81851,-86.01239
225,Wildwood Resort,https://www.mhvillage.com/parks/37442, Cass ,163,167,195,"23040 Phillips Road, Edwardsburg, MI, 49112",41.81851,-86.01239
226,Simmons Mobile Home Park,https://www.mhvillage.com/parks/15681, Cass ,N/A,N/A,196,"19311 Us Highway 12, Edwardsburg, MI, 49112",41.76878,-85.9411
227,Maple Grove Trailer Court,https://www.mhvillage.com/parks/15678, Cass ,75,N/A,197,"59733 Decatur Road, Cassopolis, MI, 49031",41.90053,-85.99293
228,North Wayne Estates,https://www.mhvillage.com/parks/15917, Cass ,10,N/A,198,"27139 Corwin Street, Dowagiac, MI, 49047",41.98832,-86.10795
229,Rema Mobile Home Park,https://www.mhvillage.com/parks/15679, Cass ,92,N/A,199,"24050 North Shore Drive, Edwardsburg, MI, 49112",41.81851,-86.01239
230,Linden Mobile Home Park,https://www.mhvillage.com/parks/15673, Cass ,N/A,N/A,200,"19350 State Line Road, Edwardsburg, MI, 49112",41.81851,-86.01239
231,Bay Shore Estates Mobile Home Park,https://www.mhvillage.com/parks/15795, Emmet ,83,400,308,"7463 Old Us Highway 31, Lot 24, Petoskey, MI, 49770",45.34226,-84.9135
232,Charlevoix Estates,https://www.mhvillage.com/parks/15897, Charlevoix ,189,N/A,203,"6685 M 66 North, Charlevoix, MI, 49720",45.27139,-85.2327
233,Lake Michigan Heights,https://www.mhvillage.com/parks/547, Charlevoix ,108,N/A,204,"7400 Lakeview Drive, Charlevoix, MI, 49720",45.27139,-85.2327
235,Sun Outdoors Petoskey Bay Harbor,https://www.mhvillage.com/parks/126054, Emmet ,78,N/A,310,"5505 Charlevoix Avenue, Petoskey, MI, 49770",45.35816,-85.05439
236,Petoskey KOA,https://www.mhvillage.com/parks/105759, Emmet ,N/A,N/A,312,"1800 North Us 31, Petoskey, MI, 49770",45.39633,-84.89247
237,Harbor Springs Estates,https://www.mhvillage.com/parks/558, Emmet ,68,N/A,313,"629 East Lake Street, Harbor Springs, MI, 49740",45.544,-84.99149
238,Mountain View Estates,https://www.mhvillage.com/parks/15767, Otsego ,42,N/A,955,"2225 Center Street, Boyne Falls, MI, 49713",45.20527,-84.8555
239,Radio City Village,https://www.mhvillage.com/parks/15793, Emmet ,44,N/A,314,"1121 Lears Road, Petoskey, MI, 49770",45.34226,-84.9135
240,Chalet Estates,https://www.mhvillage.com/parks/15794, Emmet ,41,N/A,315,"5669 Pickerel Lake Road, Petoskey, MI, 49770",45.34226,-84.9135
241,Huron Estates,https://www.mhvillage.com/parks/15184, Wayne ,806,629,1170,"22000 Inkster Road, Romulus, MI, 48174",42.20291,-83.34416
242,Town & Country Mobile Home Park,https://www.mhvillage.com/parks/15775, Presque Isle ,N/A,N/A,982,"2653 Vanyea Road, Cheboygan, MI, 49721",45.5755,-84.46807
243,Indian River Mobile Home Park,https://www.mhvillage.com/parks/15771, Cheboygan ,N/A,N/A,217,"5144 South Straits Highway, Indian River, MI, 49749",45.4228,-84.56745
244,Indian Village Park,https://www.mhvillage.com/parks/15988, Cheboygan ,N/A,N/A,218,"4726 Lanai Drive, Indian River, MI, 49749",45.4228,-84.56745
245,Larry's Trailer Court,https://www.mhvillage.com/parks/15773, Presque Isle ,N/A,N/A,986,"10692 North Black River Road, Cheboygan, MI, 49721",45.5755,-84.46807
246,Conway Commons,https://www.mhvillage.com/parks/128334, Emmet ,90,1200,306,"2959 Oden Rd, Alanson, MI, 49706",45.42702,-84.85377
247,Conway Commons,https://www.mhvillage.com/parks/128334, Emmet ,90,1200,309,"8523 Park Way, Alanson, MI, 49706",45.44418,-84.78671
248,Alanson Estates Noble Homes,https://www.mhvillage.com/parks/15797, Emmet ,30,N/A,307,"6760 Us 31 North, Alanson, MI, 49706",45.4558,-84.78367
249,El Rancho Alanson RV Resort,https://www.mhvillage.com/parks/126084, Emmet ,137,N/A,311,"6712 San Juan, Alanson, MI, 49706",45.44001,-84.77692
250,Shady Grove Village,https://www.mhvillage.com/parks/15855, Presque Isle ,N/A,N/A,979,"4128 Michigan, Onaway, MI, 49765",45.34678,-84.25729
251,Lake Superior Estates,https://www.mhvillage.com/parks/15780, Luce ,225,N/A,640,"102 East 25th Avenue, Sault Sainte Marie, MI, 49783",46.4698,-84.34852
252,Blair Hastings Park Lake Superior State,https://www.mhvillage.com/parks/15779, Mackinac ,N/A,N/A,650,"1000 College Drive, Sault Sainte Marie, MI, 49783",46.37568,-84.30145
253,L & M Trailer Court,https://www.mhvillage.com/parks/550, Luce ,133,N/A,644,"1804 West 18th Street, Sault Sainte Marie, MI, 49783",46.48215,-84.40096
254,Riverside Mobile Home Village,https://www.mhvillage.com/parks/15777, Mackinac ,60,N/A,651,"2210 Riverside Drive, Sault Sainte Marie, MI, 49783",46.37568,-84.30145
255,Fornicola Trailer Park,https://www.mhvillage.com/parks/15778, Mackinac ,N/A,N/A,652,"2501 Ashmun Street, Sault Sainte Marie, MI, 49783",46.37568,-84.30145
257,Great Northern Mobile Home Park,https://www.mhvillage.com/parks/15824, Luce ,N/A,N/A,639,"M-28 Highway, Newberry, MI, 49868",46.45669,-85.41102
258,Meadows of Farwell,https://www.mhvillage.com/parks/15603, Clare ,48,340,232,"551 Grace Street, Farwell, MI, 48622",43.8212,-84.87874
259,Pleasant Valley Mobile Home Park,https://www.mhvillage.com/parks/15608, Clare ,N/A,362,233,"600 West 5th Street, Clare, MI, 48617",43.82236,-84.78176
260,Cedar Shores,https://www.mhvillage.com/parks/16059, Missaukee ,N/A,N/A,753,"5916 Cedar Shores, Harrison, MI, 48625",44.03111,-84.84619
261,Hidden Hill Family Campground,https://www.mhvillage.com/parks/15727, Missaukee ,55,N/A,754,"300 North Clare, Harrison, MI, 48625",44.03111,-84.84619
262,Harrison Estates,https://www.mhvillage.com/parks/15606, Missaukee ,50,N/A,755,"2600 Mostetler Road, Harrison, MI, 48625",44.03111,-84.84619
263,Beech Tree Estates,https://www.mhvillage.com/parks/16044, Clare ,N/A,N/A,237,"7413 North Nottawa Road, Farwell, MI, 48622",43.8212,-84.87874
264,Loomis Resort,https://www.mhvillage.com/parks/15605, Osceola ,N/A,N/A,929,"10585 Rock Road, Lake, MI, 48632",43.83909,-85.015
265,Luke's Trailer Park,https://www.mhvillage.com/parks/15607, Clare ,N/A,N/A,239,"705 S Rainbow Dr, Clare, MI, 48617",43.85808,-84.72783
266,Parkers Trailer Park,https://www.mhvillage.com/parks/15604, Missaukee ,N/A,N/A,761,"3100 Long Lake Road, Harrison, MI, 48625",44.03111,-84.84619
267,Ruby's Mobile Home Park,https://www.mhvillage.com/parks/15609, Clare ,N/A,N/A,241,"10600 South Clare Avenue, Clare, MI, 48617",43.85808,-84.72783
268,Withii Trailer Park,https://www.mhvillage.com/parks/15610, Missaukee ,N/A,N/A,763,"1820 Hampton Road, Harrison, MI, 48625",44.03111,-84.84619
269,King Arthur's Court,https://www.mhvillage.com/parks/15064, Clinton ,425,599,243,"2201 East State Road, Lansing, MI, 48906",42.78265,-84.57672
270,Capital Crossings,https://www.mhvillage.com/parks/34271, Clinton ,275,N/A,244,"13531 Declaration Court, Eagle, MI, 48822",42.83725,-84.75913
271,Cadgewith Farms,https://www.mhvillage.com/parks/15721, Clinton ,228,480,245,"2300 East State Road, Lansing, MI, 48906",42.78265,-84.57672
272,Valley Estates,https://www.mhvillage.com/parks/15101, Ingham ,148,310,435,"16751 Turner Road, Lansing, MI, 48906",42.77352,-84.551
273,The Meadows of St Johns,https://www.mhvillage.com/parks/15106, Clinton ,216,N/A,246,"2265 W Parks Rd - Lot #1, Saint Johns, MI, 48879",43.00047,-84.58266
274,Quiet Cove,https://www.mhvillage.com/parks/15408, Shiawassee ,43,N/A,1076,"12675 Colby Lake Road, Laingsburg, MI, 48848",42.87317,-84.38924
275,Kristana Mobile Home Park,https://www.mhvillage.com/parks/15213, Clinton ,165,396,248,"1110 East Coleman Road, Lansing, MI, 48906",42.78265,-84.57672
276,Maple Leaf Community,https://www.mhvillage.com/parks/32680, Shiawassee ,76,300,1082,"8701 East M-21, Ovid, MI, 48866",42.99048,-84.35524
277,Saint Johns Estates,https://www.mhvillage.com/parks/15105, Clinton ,112,N/A,251,"609 North Morton Street, Saint Johns, MI, 48879",43.00047,-84.58266
278,Moon Lake Mobile Home Park,https://www.mhvillage.com/parks/15325, Shiawassee ,92,N/A,1089,"12700 South Colby Lake Road, Laingsburg, MI, 48848",42.87317,-84.38924
279,Maple Valley Subdivision,https://www.mhvillage.com/parks/605, Shiawassee ,35,N/A,1090,"Meridian Road - Po Box 135, Ovid, MI, 48866",42.99048,-84.35524
280,Westphalia Mobile Home Court,https://www.mhvillage.com/parks/15216, Clinton ,8,N/A,254,"13606 Jason Rd, Westphalia, MI, 48894",42.91526,-84.79072
281,Park Lake Mobile Home Court,https://www.mhvillage.com/parks/15214, Clinton ,48,N/A,255,"6335 Park Lake Road, Bath, MI, 48808",42.82693,-84.44378
282,Crosswinds Mobile Home Park,https://www.mhvillage.com/parks/15212, Clinton ,90,N/A,256,"14073 South Us Highway 27, Dewitt, MI, 48820",42.81211,-84.54134
284,Hartwick Pines Mobile Home Estates,https://www.mhvillage.com/parks/15925, Oscoda ,52,N/A,933,"4869 Brighton Circle, Grayling, MI, 49738",44.71357,-84.65051
285,Grayling Mobile Home Estates,https://www.mhvillage.com/parks/15906, Oscoda ,163,N/A,937,"North Down River Road, Grayling, MI, 49738",44.71357,-84.65051
286,Timberly Village,https://www.mhvillage.com/parks/15783, Oscoda ,N/A,N/A,944,"243 Woodlawn Boulevard, Grayling, MI, 49738",44.71357,-84.65051
287,Aspen Village,https://www.mhvillage.com/parks/595, Otsego ,204,303,947,"204 Aspen Commons Drive, Gaylord, MI, 49735",44.99125,-84.6518
288,Nottingham Forest,https://www.mhvillage.com/parks/15851, Otsego ,74,480,948,"1665 West M-32, Gaylord, MI, 49735",44.99125,-84.6518
289,Sunset Estates of Gaylord LLC,https://www.mhvillage.com/parks/15853, Otsego ,20,550,949,"7346 Old 27 Hwy South, Vanderbilt, MI, 49795",44.9141,-84.69544
290,Higgins Lake East Campground and Mobile Home Park,https://www.mhvillage.com/parks/15860, Roscommon ,N/A,N/A,992,"2380 West Burdell Road, Roscommon, MI, 48653",44.48037,-84.61296
291,Higgins Lake Hide-a-way Mobile Home Park,https://www.mhvillage.com/parks/15857, Roscommon ,N/A,N/A,993,"6059 West Higgins Lake Drive, Higgins Lake, MI, 48627",44.46121,-84.7481
292,Log Haven Mobile Home Park,https://www.mhvillage.com/parks/15852, Otsego ,N/A,N/A,950,"273 Randolph Street, Gaylord, MI, 49735",44.99125,-84.6518
294,Wagon Wheel Estates,https://www.mhvillage.com/parks/15863, Roscommon ,N/A,N/A,999,"2720 West Higgins Lake Road, Roscommon, MI, 48653",44.48037,-84.61296
295,Woodland Estates,https://www.mhvillage.com/parks/345, Kalamazoo ,348,515,531,"4797 South 4th Street, Kalamazoo, MI, 49009",42.24645,-85.72582
296,Fair View Estates,https://www.mhvillage.com/parks/15785, Delta ,N/A,N/A,274,"1401 North 23rd Street, Escanaba, MI, 49829",45.76411,-87.07968
297,White Birch Village,https://www.mhvillage.com/parks/15789, Iron ,249,250,474,"W8079 S Us Hwy 2/141, Iron Mountain, MI, 49801",45.80907,-88.03536
298,Park Ridge,https://www.mhvillage.com/parks/15791, Iron ,94,N/A,475,"1300 Michigan Avenue, Office, Iron Mountain, MI, 49801",45.80987,-88.04959
299,Rivers Bend Mobile Park,https://www.mhvillage.com/parks/15792, Iron ,51,N/A,476,"N3905 Pine Mountain Rd, Iron Mountain, MI, 49801",45.94478,-87.96643
300,Keyes Lake Mobile Home Park,https://www.mhvillage.com/parks/127988, Iron ,N/A,N/A,477,"4909 John Bradley Lane, Florence, WI, 54121",45.90715,-88.30915
301,White Birch Trailer Court,https://www.mhvillage.com/parks/27193, Dickinson ,N/A,N/A,283,"W 11258 White Birch, Dunbar, WI, 54119",45.63086,-88.14059
302,Kensington Meadows,https://www.mhvillage.com/parks/15873, Ingham ,290,N/A,422,"4245 West Jolly Road, Lansing, MI, 48911",42.68314,-84.60191
303,Windsor Estates,https://www.mhvillage.com/parks/16025, Eaton ,470,390,287,"6661 Canal Road, Dimondale, MI, 48821",42.63992,-84.65103
304,Eaton Pine Village,https://www.mhvillage.com/parks/15956, Eaton ,147,396,285,"458 Eaton Pines Blvd, Eaton Rapids, MI, 48827",42.50937,-84.669
305,Butternut Creek,https://www.mhvillage.com/parks/27918, Eaton ,30,370,286,"801 Packard Highway, Charlotte, MI, 48813",42.56686,-84.819
306,Grand Ledge Ravines,https://www.mhvillage.com/parks/15217, Eaton ,218,363,288,"855 West Jefferson Street, Grand Ledge, MI, 48837",42.74847,-84.76911
307,Park Terrace MHC,https://www.mhvillage.com/parks/15226, Eaton ,158,N/A,289,"3435 West Saint Joseph Street, Lansing, MI, 48917",42.71887,-84.63234
308,Century Park,https://www.mhvillage.com/parks/15222, Eaton ,230,435,290,"215 North Canal Road, Lansing, MI, 48917",42.71887,-84.63234
309,Maple Knoll Mobile Home Community,https://www.mhvillage.com/parks/15241, Eaton ,49,385,291,"1716 E Lansing Road, Charlotte, MI, 48813",42.58416,-84.80285
310,Mill Pond an FR Community,https://www.mhvillage.com/parks/15076, Ingham ,356,435,431,"1500 Old Mill Lane, Lansing, MI, 48911",42.68109,-84.55825
311,Stonegate,https://www.mhvillage.com/parks/15109, Ingham ,278,N/A,432,"2700 Eaton Rapids, Lansing, MI, 48911",42.65876,-84.59355
312,Country Village,https://www.mhvillage.com/parks/15240, Eaton ,100,N/A,294,"7781 West Grand River Highway, Grand Ledge, MI, 48837",42.74847,-84.76911
313,Grand Oaks Village,https://www.mhvillage.com/parks/15061, Eaton ,168,N/A,295,"817 North Clinton Street, Grand Ledge, MI, 48837",42.74847,-84.76911
314,Hi-Way Mobile Haven,https://www.mhvillage.com/parks/15219, Eaton ,67,N/A,296,"2600 Lansing Road, Charlotte, MI, 48813",42.56686,-84.819
315,Independence Commons,https://www.mhvillage.com/parks/15911, Eaton ,340,N/A,297,"1776 Constitution Circle, Potterville, MI, 48876",42.6437,-84.73949
316,Meadows Mobile Home Park,https://www.mhvillage.com/parks/15660, Gratiot ,93,N/A,389,"411 South Grover Street, Alma, MI, 48801",43.37908,-84.65708
317,Valley Springs Mobile Home Park,https://www.mhvillage.com/parks/15220, Eaton ,81,350,299,"4723 Hartel Road, Potterville, MI, 48876",42.6437,-84.73949
318,Belle Vista Mobile Home Park,https://www.mhvillage.com/parks/21576, Eaton ,206,N/A,300,"509 Belle Vista Drive, Bellevue, MI, 49021",42.42874,-85.09764
319,Bellevue Mobile Home Park,https://www.mhvillage.com/parks/15519, Eaton ,76,N/A,301,"23951 15 Mile Road, Bellevue, MI, 49021",42.42874,-85.09764
320,Hickory Haven Mobile Home Park,https://www.mhvillage.com/parks/15218, Eaton ,27,N/A,302,"420 Haven Street, Eaton Rapids, MI, 48827",42.50937,-84.669
321,Lawrence Manor Mobile Home Park,https://www.mhvillage.com/parks/280, Eaton ,30,N/A,304,"629 West Lawrence Avenue, Charlotte, MI, 48813",42.56686,-84.819
322,Riverwood,https://www.mhvillage.com/parks/106664, Eaton ,N/A,N/A,305,"501 South Jefferson St, Bellevue, MI, 49021",42.44934,-85.01063
323,Pineview Estates,https://www.mhvillage.com/parks/15742, Genesee ,1011,400,316,"6152 N. Genesee Rd., Flint, MI, 48506",43.06496,-83.62216
324,Broadview Estates,https://www.mhvillage.com/parks/289, Genesee ,497,N/A,317,"4250 North State Road, Davison, MI, 48423",43.04208,-83.52223
325,Cider Mill Crossings,https://www.mhvillage.com/parks/34419, Genesee ,327,N/A,318,"9900 Townsquare Boulevard, Fenton, MI, 48430",42.77042,-83.74655
326,Maple Run,https://www.mhvillage.com/parks/15991, Genesee ,145,N/A,320,"2000 Maple Run Boulevard, Clio, MI, 48420",43.16502,-83.71659
327,Fisherman's Cove,https://www.mhvillage.com/parks/15532, Genesee ,162,N/A,321,"4441 Jena Lane, Flint, MI, 48507",42.95973,-83.7225
328,Pine Ridge,https://www.mhvillage.com/parks/15741, Genesee ,195,N/A,323,"9348 Silver Lake Road, Linden, MI, 48451",42.79415,-83.82942
329,Tyrone Woods Manufactured Home Community,https://www.mhvillage.com/parks/67222, Genesee ,403,450,325,"8378 Hogan Rd, Fenton, MI, 48430",42.77042,-83.74655
330,Creek Wood,https://www.mhvillage.com/parks/15970, Genesee ,336,N/A,326,"3440 Creekside Boulevard, Burton, MI, 48519",42.97788,-83.62682
331,Green Briar Community,https://www.mhvillage.com/parks/15968, Genesee ,345,350,342,"4070 Green Briar Boulevard, Burton, MI, 48529",42.97458,-83.66285
332,Timber Heights,https://www.mhvillage.com/parks/15924, Genesee ,221,N/A,328,"1168 N. Oak Rd., Davison, MI, 48423",43.0264,-83.49335
333,Hawaiian Gardens/Holly Village,https://www.mhvillage.com/parks/15549, Oakland ,233,N/A,895,"4261 Grange Hall Road Site 1B, Holly, MI, 48442",42.8111,-83.6147
335,Swartz Creek Estates,https://www.mhvillage.com/parks/15998, Genesee ,176,549,333,"73 Ashley Circle, Swartz Creek, MI, 48473",42.96219,-83.84656
337,Grand Blanc Crossing,https://www.mhvillage.com/parks/15910, Genesee ,478,N/A,335,"8225 Embury Road, Grand Blanc, MI, 48439",42.92103,-83.64743
338,Lake Fenton Estates,https://www.mhvillage.com/parks/37972, Genesee ,135,320,337,"11429 Harbor Cove Drive, Fenton, MI, 48430",42.85895,-83.71818
339,South Valley Estates,https://www.mhvillage.com/parks/437, Genesee ,116,305,339,"37 Bellwood Drive, Swartz Creek, MI, 48473",42.96076,-83.81032
340,Highlands Estates,https://www.mhvillage.com/parks/15370, Genesee ,635,437,340,"2197 East Mount Morris Road, Mount Morris, MI, 48458",43.12576,-83.68609
341,Flushing Estates,https://www.mhvillage.com/parks/313, Genesee ,279,N/A,343,"7416 Gillette Road, Flushing, MI, 48433",43.08096,-83.86068
342,Linden Place,https://www.mhvillage.com/parks/15333, Genesee ,162,N/A,344,"4192 South Linden Road, Flint, MI, 48507",42.96585,-83.77672
343,Swartz Creek Meadows,https://www.mhvillage.com/parks/359, Genesee ,584,412,345,"4101 Sheridan Road, Lennon, MI, 48449",42.99756,-83.94851
360,Marshall's Crossing,https://www.mhvillage.com/parks/16009, Saginaw ,200,375,1009,"12050 Trident Boulevard, Montrose, MI, 48457",43.21973,-83.93292
361,Meadowbrook Manor Estates,https://www.mhvillage.com/parks/300, Genesee ,401,370,341,"7280 West Mt. Morris Road, Flushing, MI, 48433",43.08096,-83.86068
377,Camelot Villa,https://www.mhvillage.com/parks/15094, Macomb ,712,N/A,661,"17111 Hall Road, Macomb, MI, 48044",42.62826,-82.95044
414,Cloverland Mobile Home Park,https://www.mhvillage.com/parks/15801, Ontonagon ,N/A,N/A,915,"601 Garvey Street, Ironwood, MI, 49938",46.48946,-90.204
415,Ironwood Estates Mobile Home Community,https://www.mhvillage.com/parks/111034, Ontonagon ,N/A,N/A,918,"N10356 Lake Rd, Ironwood, MI, 49938",46.47251,-90.15612
416,Kristella's Mobile Home Park,https://www.mhvillage.com/parks/15800, Ontonagon ,N/A,N/A,919,"402 Sunday Lake, Wakefield, MI, 49968",46.5147,-89.89452
418,Maple Grove of Mercer,https://www.mhvillage.com/parks/29108, Ontonagon ,28,250,912,"1998 W Green Meadows Lane, Mercer, WI, 54547",46.16688,-90.06327
419,Hidden Acres Mobile Park,https://www.mhvillage.com/parks/27038, Gogebic ,N/A,N/A,358,"Av10750 Madson Rd, Woodruff, WI, 54568",45.95527,-89.69507
420,Northland Mobile Homes,https://www.mhvillage.com/parks/36294, Gogebic ,55,N/A,359,"4251 Spruce Ln, Eagle River, WI, 54521",45.95139,-89.26006
421,Tuscobia Terrace Estates,https://www.mhvillage.com/parks/27293, Gogebic ,24,N/A,360,"100 7th Ave S, Park Falls, WI, 54552",45.93374,-90.45693
422,Evergreen Estates,https://www.mhvillage.com/parks/15639, Tuscola ,92,319,1094,"2115 East Evergreen Dr., Caro, MI, 48723",43.49228,-83.38507
423,Kathan Lake Estates,https://www.mhvillage.com/parks/78529, Gogebic ,12,N/A,362,"8595 Peninsula Road, Eagle River, WI, 54521",45.95139,-89.26006
424,Cloverland Construction Inc,https://www.mhvillage.com/parks/26965, Gogebic ,N/A,N/A,363,"4935 State Highway 70 W, Eagle River, WI, 54521",45.95139,-89.26006
425,Eagle River Mobile Home Park,https://www.mhvillage.com/parks/27107, Gogebic ,N/A,N/A,364,"2030 Us Highway 45 North, Eagle River, WI, 54521",45.95114,-89.23996
426,Eagles Landing,https://www.mhvillage.com/parks/102825, Ontonagon ,N/A,N/A,916,"6888 Helen Creek Road, Land O Lakes, WI, 54540",46.15513,-89.35823
427,Pipers Mobile Village,https://www.mhvillage.com/parks/573, Ontonagon ,N/A,N/A,911,"Trailer Court Road, White Pine, MI, 49971",46.72666,-89.54651
428,King's Court,https://www.mhvillage.com/parks/521, Leelanau ,639,N/A,586,"1585 Ray Blvd., Traverse City, MI, 49686",44.72831,-85.60562
429,Cherrywood Village Farms,https://www.mhvillage.com/parks/15884, Wexford ,193,210,1187,"2451 M-113 East, Kingsley, MI, 49649",44.56662,-85.53485
430,Timber Ridge,https://www.mhvillage.com/parks/127472, Leelanau ,31,358,595,"4050 E Hammond Rd, Traverse City, MI, 49686",44.71424,-85.49447
431,Evergreen Village,https://www.mhvillage.com/parks/15580, Gratiot ,183,N/A,384,"21 Evergreen Drive, Saint Louis, MI, 48880",43.39773,-84.62352
432,Alma Mobile Home Park,https://www.mhvillage.com/parks/15659, Gratiot ,46,N/A,382,"315 Linwood Avenue, Alma, MI, 48801",43.37808,-84.63972
433,Breckenridge Mobile Home Park,https://www.mhvillage.com/parks/15658, Gratiot ,46,N/A,383,"452 Elm Street, Breckenridge, MI, 48615",43.43056,-84.46877
434,Nesen's Countryside Park,https://www.mhvillage.com/parks/15948, Gratiot ,77,300,385,"600 Cheesman Road, Saint Louis, MI, 48880",43.45166,-84.56312
435,Scotsdale Estates,https://www.mhvillage.com/parks/519, Gratiot ,189,427,386,"3382 Alma Drive, Alma, MI, 48801",43.37908,-84.65708
436,Timber Country MHP,https://www.mhvillage.com/parks/15662, Gratiot ,32,N/A,387,"10401 West Monroe Road, Elwell, MI, 48832",43.40705,-84.81317
437,Meadow Lane Estates,https://www.mhvillage.com/parks/15661, Gratiot ,128,N/A,388,"401 South Saint Johns Street, Ithaca, MI, 48847",43.27706,-84.56826
438,Woodcrest Mobile Home Park,https://www.mhvillage.com/parks/15663, Gratiot ,34,N/A,390,"953 East Monroe Road, Saint Louis, MI, 48880",43.45166,-84.56312
439,Riley's Mobile Home Court,https://www.mhvillage.com/parks/15665, Hillsdale ,50,325,391,"3700 North Hillsdale Road, Hillsdale, MI, 49242",41.86512,-84.60385
440,Hillsdale,https://www.mhvillage.com/parks/475, Hillsdale ,170,N/A,393,"2856 Carleton Road, Hillsdale, MI, 49242",41.93985,-84.64735
441,Hillside Acres MHC,https://www.mhvillage.com/parks/494, Hillsdale ,42,250,394,"5200 Bankers Road, Reading, MI, 49274",41.84686,-84.7284
442,Somerset Centre Estates,https://www.mhvillage.com/parks/496, Hillsdale ,310,365,395,"12851 East Chicago Road, Somerset Center, MI, 49282",42.0406,-84.39641
443,Southern Belle Mobile Community,https://www.mhvillage.com/parks/37607, Hillsdale ,14,185,396,"2722 West Card Road, Hillsdale, MI, 49242",41.86512,-84.60385
444,West Village Mobile Home Park,https://www.mhvillage.com/parks/37796, Hillsdale ,16,N/A,397,"8800 Market Street, Pittsford, MI, 49271",41.85495,-84.45733
445,Saint Joe Mobile Park,https://www.mhvillage.com/parks/15664, Hillsdale ,12,N/A,398,"310 West Saint Joe Street, Litchfield, MI, 49252",42.02898,-84.75346
446,Ramblewood Mobile Home Park,https://www.mhvillage.com/parks/15666, Hillsdale ,30,N/A,399,"4091 State Road, Hillsdale, MI, 49242",41.86512,-84.60385
447,Bayside Estates,https://www.mhvillage.com/parks/561, Huron ,74,266,407,"2420 Pinetree Drive, Sebewaing, MI, 48759",43.73981,-83.39244
448,Clarkston Riverview Mobile Court,https://www.mhvillage.com/parks/566, Huron ,36,250,408,"4599 Pigeon Road, Elkton, MI, 48731",43.83306,-83.16145
449,Huron Estates Mobile Home Village,https://www.mhvillage.com/parks/15811, Huron ,50,315,409,"163 Nelson Street, Harbor Beach, MI, 48441",43.80169,-82.73358
450,Misty Meadows,https://www.mhvillage.com/parks/559, Huron ,27,N/A,410,"1723 South Vandyke, Bad Axe, MI, 48413",43.7882,-83.06817
451,Port Austin Estates,https://www.mhvillage.com/parks/15814, Huron ,36,N/A,411,"M 25 & Larned Road Box 250, Port Austin, MI, 48467",44.00348,-82.96883
452,Summerwood Estates,https://www.mhvillage.com/parks/564, Huron ,80,N/A,412,"162 Charlotte Street, Bad Axe, MI, 48413",43.78782,-82.99111
453,Clarkson Pines Mobile Home Village,https://www.mhvillage.com/parks/15810, Huron ,N/A,N/A,413,"865 South Vandyke Road, Bad Axe, MI, 48413",43.80155,-83.01907
454,Mel-O-Day Acres Mobile Home Park,https://www.mhvillage.com/parks/15807, Huron ,40,N/A,414,"3193 Port Austin Road, Port Austin, MI, 48467",44.00348,-82.96883
455,Whalen's Grindstone Park,https://www.mhvillage.com/parks/16049, Huron ,34,N/A,415,"3373 Pointe Aux Barques, Port Austin, MI, 48467",44.00348,-82.96883
456,Sand Point Corners,https://www.mhvillage.com/parks/15812, Huron ,N/A,N/A,416,"7910 Port Austin Road, Pigeon, MI, 48755",43.83991,-83.30276
457,Caseville County Park,https://www.mhvillage.com/parks/16001, Huron ,N/A,N/A,417,"6400 Main Street, Caseville, MI, 48725",43.94751,-83.2214
458,Caseville Resort and Marina,https://www.mhvillage.com/parks/106402, Huron ,N/A,N/A,418,"6450 Riverside Dr, Caseville, MI, 48725",43.9441,-83.26923
459,Charlie's Place,https://www.mhvillage.com/parks/15809, Huron ,N/A,N/A,419,"11860 Kilmanagh Road, Sebewaing, MI, 48759",43.73981,-83.39244
460,Farmers Mobile Park,https://www.mhvillage.com/parks/15808, Huron ,N/A,N/A,420,"6351 Main Street, Caseville, MI, 48725",43.94751,-83.2214
461,Oak Grove,https://www.mhvillage.com/parks/54393, Huron ,N/A,N/A,421,"3341 Port Austin Road, Port Austin, MI, 48467",44.00348,-82.96883
462,Hamlin,https://www.mhvillage.com/parks/15107, Ingham ,209,N/A,423,"5325 Van Orden Road, Webberville, MI, 48892",42.63604,-84.15417
463,Mason Manor,https://www.mhvillage.com/parks/275, Ingham ,269,355,427,"2179 Hull Road, Mason, MI, 48854",42.58138,-84.46032
464,Oak Island Village,https://www.mhvillage.com/parks/15714, Ingham ,250,420,424,"16430  Park Lake Road, East Lansing, MI, 48823",42.76324,-84.43861
465,Leslie Estates,https://www.mhvillage.com/parks/15231, Ingham ,78,N/A,426,"714 Mill Street, Leslie, MI, 49251",42.46997,-84.41181
466,Sycamore Village,https://www.mhvillage.com/parks/233, Ingham ,396,428,425,"900 West Columbia Road, Mason, MI, 48854",42.58138,-84.46032
467,Dutch Hills,https://www.mhvillage.com/parks/277, Ingham ,278,428,428,"16400 Upton Road, East Lansing, MI, 48823",42.76324,-84.43861
468,Village Square ,https://www.mhvillage.com/parks/15229, Ingham ,100,N/A,429,"875 West Grand River Avenue, Williamston, MI, 48895",42.68861,-84.26846
469,Delhi Manor,https://www.mhvillage.com/parks/15050, Ingham ,286,382,430,"4075 East Holt Road, Holt, MI, 48842",42.64033,-84.50636
470,Valley Brook Mobile Home Estates,https://www.mhvillage.com/parks/15228, Ingham ,51,N/A,433,"1560 North Eifert Road, Holt, MI, 48842",42.63978,-84.5433
471,Falcon Pointe,https://www.mhvillage.com/parks/32341, Ingham ,244,N/A,434,"555 Quarterhorse Road, East Lansing, MI, 48823",42.76324,-84.43861
472,"Webbervilla, LLC",https://www.mhvillage.com/parks/15232, Ingham ,174,N/A,436,"400 West Grand River Avenue, Webberville, MI, 48892",42.64479,-84.17841
473,Williamston Lakes,https://www.mhvillage.com/parks/15913, Ingham ,71,425,437,"2300 East Grand River, Williamston, MI, 48895",42.68861,-84.26846
474,Windmill Park,https://www.mhvillage.com/parks/15110, Ingham ,484,390,438,"1433 Eifert Road, Holt, MI, 48842",42.63978,-84.5433
475,Willow Village Mobile Home Park,https://www.mhvillage.com/parks/15533, Ingham ,45,N/A,439,"2445 East Grand River, Williamston, MI, 48895",42.68861,-84.26846
476,Knolls Of Hamlin,https://www.mhvillage.com/parks/37739, Ingham ,23,N/A,440,"5247 Van Orden, Webberville, MI, 48892",42.64479,-84.17841
477,Sunset Mobile Home Park,https://www.mhvillage.com/parks/15648, Sanilac ,105,295,1071,"854 West Sanilac Road, Sandusky, MI, 48471",43.43036,-82.86887
478,Country Manor Mobile Home Park,https://www.mhvillage.com/parks/15224, Ingham ,39,N/A,442,"4400 Edgar Road, Leslie, MI, 49251",42.46997,-84.41181
479,Winslow's Mobile Home Terrace,https://www.mhvillage.com/parks/15230, Ingham ,72,N/A,443,"734 West Grand River Avenue, Okemos, MI, 48864",42.70499,-84.40207
480,Sherwood Forest Manufactured Home Community,https://www.mhvillage.com/parks/15874, Ionia ,240,N/A,444,"1133 Yeomans Street, Ionia, MI, 48846",42.98037,-85.08586
481,Sunset Ridge,https://www.mhvillage.com/parks/32569, Ionia ,190,409,445,"7204 East Grand River Avenue, Portland, MI, 48875",42.85464,-84.9269
482,Canterbury Estates,https://www.mhvillage.com/parks/602, Ionia ,290,391,448,"360 East Tuttle, Ionia, MI, 48846",42.95113,-85.06619
483,Pine Haven Estates,https://www.mhvillage.com/parks/15904, Ionia ,50,800,446,"10400 Pewamo Road, Pewamo, MI, 48873",42.99322,-84.83829
484,Wellington Estates,https://www.mhvillage.com/parks/15751, Wayne ,410,N/A,1177,"16031 Beech Daly Road, Taylor, MI, 48180",42.22557,-83.26855
485,Cedar Hill Trailer Park,https://www.mhvillage.com/parks/15691, Ionia ,13,250,449,"11211 East Nickleplate Road, Pewamo, MI, 48873",42.99322,-84.83829
486,Evergreen Mobile Home Community,https://www.mhvillage.com/parks/461, Ionia ,110,335,450,"2096 North State Road, Ionia, MI, 48846",42.98166,-85.0551
487,Parkview Estates,https://www.mhvillage.com/parks/15682, Ionia ,75,365,451,"9203 Nelson Road, Portland, MI, 48875",42.85464,-84.9269
488,Woodcreek Mobile Estates,https://www.mhvillage.com/parks/15684, Ionia ,30,N/A,452,"6600 North State Road, Orleans, MI, 48865",43.07627,-85.10939
489,Glenview Mobile Home Park,https://www.mhvillage.com/parks/15690, Ionia ,13,245,453,"4090 Jackson Road, Saranac, MI, 48881",42.93399,-85.20615
490,Grieves Trailer Park,https://www.mhvillage.com/parks/15685, Ionia ,5,N/A,454,"178 Washington Street, Saranac, MI, 48881",42.93399,-85.20615
491,Long Lake Mobile Home Estates,https://www.mhvillage.com/parks/504, Ionia ,25,N/A,456,"2701 West Long Lake Road, Orleans, MI, 48865",43.07627,-85.10939
492,Pine View Trailer Park,https://www.mhvillage.com/parks/15683, Ionia ,20,N/A,457,"6385 Whites Bride Road, Belding, MI, 48809",43.04999,-85.22343
493,Hidden Valley Mobile Home Park,https://www.mhvillage.com/parks/15689, Ionia ,50,N/A,458,"3856 South Stage Road, Ionia, MI, 48846",42.98166,-85.0551
494,West Wind Court,https://www.mhvillage.com/parks/15686, Ionia ,11,N/A,459,"5448 West Grand River Ave, Portland, MI, 48875",42.85464,-84.9269
495,Carl Chase,https://www.mhvillage.com/parks/16000, Ionia ,N/A,N/A,460,"2020 Johnson Road, Saranac, MI, 48881",42.93399,-85.20615
496,Schmid Farm Estates,https://www.mhvillage.com/parks/87313, Ionia ,14,N/A,461,"5590 N State Road, Orleans, MI, 48865",43.07627,-85.10939
497,Sunset View Mobile Home Park,https://www.mhvillage.com/parks/15692, Ionia ,35,N/A,462,"926 Hill Street, Portland, MI, 48875",42.85464,-84.9269
498,Slater's Mobile Home Village,https://www.mhvillage.com/parks/530, Ionia ,N/A,N/A,463,"728 Jordan Lake Avenue, Lake Odessa, MI, 48849",42.80836,-85.14312
500,Northern Pines,https://www.mhvillage.com/parks/15995, Oscoda ,30,700,935,"6720 South Drive, Hale, MI, 48739",44.38296,-83.79446
501,White Pine Ridge,https://www.mhvillage.com/parks/15817, Oscoda ,N/A,N/A,946,"6721 South Drive, Hale, MI, 48739",44.39344,-83.81642
502,Lake Terrace,https://www.mhvillage.com/parks/44285, Iron ,N/A,N/A,478,"1360 Lake Terrace Dr, Three Lakes, WI, 54562",45.7841,-89.13693
503,The Crossings On Broadway,https://www.mhvillage.com/parks/16022, Isabella ,225,N/A,480,"5402 East Broadway Road, Mount Pleasant, MI, 48858",43.60401,-84.74175
504,Summerhill Village,https://www.mhvillage.com/parks/15633, Isabella ,305,285,481,"5280 Mission Road, Mount Pleasant, MI, 48858",43.61887,-84.79772
505,Oakview Mobile Estates,https://www.mhvillage.com/parks/15631, Isabella ,46,N/A,482,"1800 East Jordan Road, Mount Pleasant, MI, 48858",43.61887,-84.79772
506,Broadway Acres,https://www.mhvillage.com/parks/15720, Isabella ,71,N/A,483,"5400 Kay Street, Mount Pleasant, MI, 48858",43.608,-84.73948
507,Country Place Park,https://www.mhvillage.com/parks/15634, Isabella ,66,N/A,484,"4151 East Jordan Road, Mount Pleasant, MI, 48858",43.61887,-84.79772
508,Isabella Village,https://www.mhvillage.com/parks/15905, Isabella ,170,400,479,"5232 East Broadway Road, Mount Pleasant, MI, 48858",43.60358,-84.74468
509,Maple View Estates East,https://www.mhvillage.com/parks/15635, Isabella ,136,200,485,"1955 S. Chippewa Road, Mount Pleasant, MI, 48858",43.61224,-84.62801
510,Mount Pleasant Mobile Home Park,https://www.mhvillage.com/parks/15588, Isabella ,120,N/A,486,"505 South Bradley Rd., Mount Pleasant, MI, 48858",43.61887,-84.79772
511,Broomfield Valley Mobile Home Park,https://www.mhvillage.com/parks/15587, Isabella ,85,N/A,487,"6553 West Remus Road, Mount Pleasant, MI, 48858",43.61887,-84.79772
512,Alexander's Mobile Village,https://www.mhvillage.com/parks/33825, Isabella ,20,N/A,488,"8649 South Loomis Road, Shepherd, MI, 48883",43.56428,-84.697
513,Maple View Estates West,https://www.mhvillage.com/parks/15632, Isabella ,37,N/A,489,"10749 East Pickard, Mount Pleasant, MI, 48858",43.61887,-84.79772
514,Westwind Mobile Home Park,https://www.mhvillage.com/parks/15636, Isabella ,N/A,N/A,490,"3640 East Rosebush Road, Rosebush, MI, 48878",43.70936,-84.76817
515,Sherman Oaks,https://www.mhvillage.com/parks/347, Jackson ,366,N/A,492,"1144 Sherman Blvd., Jackson, MI, 49201",42.33629,-84.41924
516,Windham Hills,https://www.mhvillage.com/parks/15980, Jackson ,420,N/A,493,"4020 County Farm Road, Jackson, MI, 49201",42.2594,-84.37935
517,Hillanlake Village Mobile Home Park,https://www.mhvillage.com/parks/15377, Jackson ,151,N/A,495,"3998 Sunset Drive, Brooklyn, MI, 49230",42.09382,-84.22136
519,Coachman's Cove,https://www.mhvillage.com/parks/399, Jackson ,246,385,496,"6600 Portage Lake Road, Munith, MI, 49259",42.37239,-84.24817
520,Cozy Manufactured Home Community,https://www.mhvillage.com/parks/397, Jackson ,206,N/A,494,"1259 East Mcdevitt Road, Jackson, MI, 49203",42.19499,-84.38051
521,Spring Valley Estates,https://www.mhvillage.com/parks/394, Jackson ,94,370,499,"121 Split Rail Trail, Hanover, MI, 49241",42.09807,-84.54466
522,Three Oaks Estates,https://www.mhvillage.com/parks/15540, Jackson ,44,N/A,500,"13380 Michigan 60, Concord, MI, 49237",42.1768,-84.64385
523,Spring Harbor,https://www.mhvillage.com/parks/5736, Jackson ,81,N/A,501,"271 Green St., Springport, MI, 49284",42.37553,-84.68605
524,Sun Valley Estates,https://www.mhvillage.com/parks/344, Jackson ,184,N/A,502,"301 Mantle Avenue, Jackson, MI, 49202",42.25854,-84.37015
525,The Reserves,https://www.mhvillage.com/parks/439, Jackson ,304,418,503,"3999 Sherwood Lakes Boulevard, Jackson, MI, 49201",42.29109,-84.44512
526,Arbor Village,https://www.mhvillage.com/parks/15376, Jackson ,266,360,504,"7940 South Circle Drive, Parma, MI, 49269",42.29845,-84.59764
527,Indian Village,https://www.mhvillage.com/parks/15351, Jackson ,294,N/A,505,"2600 East South Street, Jackson, MI, 49201",42.2594,-84.37935
528,Jackson Mobile Home Park,https://www.mhvillage.com/parks/15538, Jackson ,80,460,497,"2240 Brooklyn Road, Jackson, MI, 49203",42.21266,-84.39559
529,Michigan Avenue Estates,https://www.mhvillage.com/parks/15438, Jackson ,39,N/A,506,"3921 West Michigan Avenue, Jackson, MI, 49202",42.27538,-84.40753
530,Pleasant Lake Mobile Home Court,https://www.mhvillage.com/parks/15535, Jackson ,57,N/A,507,"11711 Bunkerhill Road, Pleasant Lake, MI, 49272",42.38781,-84.34844
531,Shady Park Mobile Home Court,https://www.mhvillage.com/parks/15534, Jackson ,23,N/A,508,"4000 East South Street, Jackson, MI, 49201",42.2594,-84.37935
532,Walnut Ridge,https://www.mhvillage.com/parks/15962, Jackson ,299,N/A,509,"3001 West Parnall Road, Jackson, MI, 49201",42.2594,-84.37935
533,Sherwood Forest,https://www.mhvillage.com/parks/40284, Jackson ,200,N/A,510,"7945 Dunn Road, Munith, MI, 49259",42.37239,-84.24817
534,Miller Trailer Village,https://www.mhvillage.com/parks/15536, Jackson ,55,N/A,511,"3500 South Dearing Road, Spring Arbor, MI, 49283",42.20021,-84.56956
535,Vinings Trailer Park,https://www.mhvillage.com/parks/32872, Jackson ,199,N/A,512,"105 Portage Lake Road, Munith, MI, 49259",42.37239,-84.24817
536,Andry's On The Lake,https://www.mhvillage.com/parks/16052, Jackson ,160,N/A,513,"7740 Mount Hope Road, Grass Lake, MI, 49240",42.28988,-84.19142
546,Wyngate Farms,https://www.mhvillage.com/parks/15870, Kalamazoo ,333,400,514,"5560 Al Sabo Drive, Kalamazoo, MI, 49009",42.30008,-85.67871
547,Colonial Manor,https://www.mhvillage.com/parks/15541, Kalamazoo ,195,N/A,523,"5500 West Kl Avenue, Kalamazoo, MI, 49009",42.28097,-85.65886
548,Saddlebrook Farms,https://www.mhvillage.com/parks/16006, Kalamazoo ,147,410,515,"5053 S. Fourth, Kalamazoo, MI, 49009",42.30008,-85.67871
549,Hillcrest Acres,https://www.mhvillage.com/parks/15868, Kalamazoo ,150,N/A,517,"3205 Douglas Ave., Kalamazoo, MI, 49004",42.32271,-85.60429
550,Weatherstone Village Community,https://www.mhvillage.com/parks/15977, Kalamazoo ,93,608,518,"5210 Marsh Arbor Trail, Kalamazoo, MI, 49004",42.35437,-85.57046
551,Colonial Acres,https://www.mhvillage.com/parks/441, Kalamazoo ,612,N/A,524,"5374 E. Deadwood Drive, Portage, MI, 49002",42.24031,-85.54112
552,Royal Estates,https://www.mhvillage.com/parks/15341, Kalamazoo ,183,454,519,"8300 Ravine Road, Kalamazoo, MI, 49009",42.30008,-85.67871
553,Fountain Springs,https://www.mhvillage.com/parks/586, Kalamazoo ,327,460,520,"1410 South 9th Street, Kalamazoo, MI, 49009",42.30008,-85.67871
554,Pavilion Estates MHC,https://www.mhvillage.com/parks/15339, Kalamazoo ,531,369,521,"6830 E N Avenue, Kalamazoo, MI, 49048",42.24486,-85.49586
555,Huntington Run,https://www.mhvillage.com/parks/15940, Kalamazoo ,175,N/A,527,"6255 Cranbrook Lane, Kalamazoo, MI, 49009",42.25554,-85.67135
556,Saddlebrook Village,https://www.mhvillage.com/parks/48601, Kalamazoo ,142,N/A,522,"503 South Fourth, Kalamazoo, MI, 49009",42.30008,-85.67871
557,Twinleaf,https://www.mhvillage.com/parks/15335, Kalamazoo ,185,849,525,"3614 Stadium Drive, Kalamazoo, MI, 49008",42.26511,-85.61897
558,Americana Estates,https://www.mhvillage.com/parks/15497, Kalamazoo ,161,393,526,"1802 Tray Lane, Kalamazoo, MI, 49006",42.3008,-85.62484
559,Sugarloaf Mobile Home Park,https://www.mhvillage.com/parks/15488, Kalamazoo ,57,367,528,"11443 Bonnie Dr, Schoolcraft, MI, 49087",42.15079,-85.62805
560,Evergreen Park,https://www.mhvillage.com/parks/419, Kalamazoo ,76,N/A,529,"182 East D Avenue, Kalamazoo, MI, 49009",42.30008,-85.67871
561,Richland MHC,https://www.mhvillage.com/parks/417, Kalamazoo ,45,N/A,530,"9604 East M-89, Richland, MI, 49083",42.37703,-85.45947
562,Climax MHP,https://www.mhvillage.com/parks/15494, Kalamazoo ,75,310,532,"14253 East On Avenue, Climax, MI, 49034",42.23909,-85.34544
563,Country Acres,https://www.mhvillage.com/parks/15725, Wexford ,200,N/A,1182,"300 Kristy Jo, Cadillac, MI, 49601",44.24871,-85.4407
564,Gale Valley Estates,https://www.mhvillage.com/parks/316, Kalamazoo ,226,N/A,534,"353 East Michigan Avenue, Galesburg, MI, 49053",42.28488,-85.41088
565,Oak Brook Estates,https://www.mhvillage.com/parks/15902, Kalamazoo ,134,N/A,535,"7200 Lovers Lane, Portage, MI, 49002",42.19698,-85.55991
566,Portage Terrace Mobile Home Park,https://www.mhvillage.com/parks/15491, Kalamazoo ,81,N/A,536,"11247 Portage Road, Portage, MI, 49002",42.15373,-85.56545
575,Mobile Home Estates,https://www.mhvillage.com/parks/15821, Kalkaska ,50,N/A,537,"2012 East Estate Road, Kalkaska, MI, 49646",44.71867,-85.09015
576,Country Meadows Village,https://www.mhvillage.com/parks/15960, Kent ,307,N/A,546,"5401 76th SE, Caledonia, MI, 49316",42.78644,-85.54563
577,Leonard Gardens,https://www.mhvillage.com/parks/577, Kent ,319,N/A,547,"4524 Leonard NW, Grand Rapids, MI, 49534",42.97102,-85.79108
578,Pinebrook Village,https://www.mhvillage.com/parks/15260, Kent ,185,N/A,549,"444 Bellewood Street SE, Grand Rapids, MI, 49548",42.86682,-85.66334
579,Alpine Meadows,https://www.mhvillage.com/parks/15037, Kent ,403,N/A,550,"3800 Fruitridge Avenue NW, Grand Rapids, MI, 49544",43.05124,-85.73307
580,"Key Vista, MHC",https://www.mhvillage.com/parks/15263, Kent ,137,495,551,"1800 West Main Street, Lowell, MI, 49331",42.93103,-85.35858
581,Byron Center,https://www.mhvillage.com/parks/33822, Kent ,143,N/A,552,"2680 84th Street, Byron Center, MI, 49315",42.81036,-85.72937
582,Camelot Manor,https://www.mhvillage.com/parks/15040, Kent ,335,N/A,553,"170 Camelot Blvd, Grand Rapids, MI, 49548",42.86682,-85.66334
583,Cedar Springs Mobile Estates,https://www.mhvillage.com/parks/15245, Kent ,216,450,555,"400 Susan, Cedar Springs, MI, 49319",43.23061,-85.51268
584,Holiday Estates,https://www.mhvillage.com/parks/15303, Wayne ,551,N/A,1166,"46000 Geddes Road Lot 416, Canton, MI, 48188",42.28145,-83.49234
587,Key Heights Village,https://www.mhvillage.com/parks/15253, Kent ,286,495,559,"11335 East Fulton Street, Lowell, MI, 49331",42.9646,-85.37632
588,Cutler Estates,https://www.mhvillage.com/parks/15049, Kent ,259,N/A,560,"6471 South Division, Grand Rapids, MI, 49548",42.82086,-85.66357
589,Grand Village,https://www.mhvillage.com/parks/169, Kent ,230,N/A,561,"6500 South Division Avenue, Grand Rapids, MI, 49548",42.82086,-85.66357
590,Dutton Mill Village,https://www.mhvillage.com/parks/15036, Kent ,307,N/A,562,"6720 West Mill Run SE, Caledonia, MI, 49316",42.84126,-85.5783
591,Algoma Estates,https://www.mhvillage.com/parks/161, Montcalm ,343,395,788,"4456 13 Mile Road, Rockford, MI, 49341",43.12562,-85.49424
592,Brookside Village,https://www.mhvillage.com/parks/15877, Kent ,196,N/A,565,"3130 Slater Ave SE, Kentwood, MI, 49512",42.90659,-85.55911
593,Ferrand Estates,https://www.mhvillage.com/parks/172, Kent ,420,459,566,"4528 Halifax SW, Wyoming, MI, 49519",42.88233,-85.73019
596,Brentwood Village,https://www.mhvillage.com/parks/15041, Kent ,195,N/A,570,"201 60th Street SE, Kentwood, MI, 49548",42.86682,-85.66334
597,Riverview Manufactured Housing Community,https://www.mhvillage.com/parks/15096, Kent ,154,N/A,571,"95 Viking Drive, Sparta, MI, 49345",43.16063,-85.69073
598,Southwood Village,https://www.mhvillage.com/parks/171, Kent ,394,406,548,"440 60th Street SE, Grand Rapids, MI, 49548",42.86682,-85.66334
600,The Oaks of Rockford,https://www.mhvillage.com/parks/104025, Montcalm ,262,525,790,"11640 Townsquare Blvd, Rockford, MI, 49341",43.12562,-85.49424
605,Creekside,https://www.mhvillage.com/parks/15099, Kent ,165,527,568,"5100 Clyde Park Avenue SW, Wyoming, MI, 49509",42.90216,-85.69671
613,Lakeside Village,https://www.mhvillage.com/parks/281, Montcalm ,67,500,794,"12205 Hart Street, Greenville, MI, 48838",43.13567,-85.36587
619,Spring Valley Mobile Home Park,https://www.mhvillage.com/parks/15262, Montcalm ,52,525,795,"6460 Northland Drive, Rockford, MI, 49341",43.12562,-85.49424
621,Whispering Pines,https://www.mhvillage.com/parks/15385, Van Buren ,104,N/A,1119,"67663 County Road 388, South Haven, MI, 49090",42.41813,-86.22021
627,Lincoln Pines Resort Inc,https://www.mhvillage.com/parks/287, Montcalm ,156,N/A,800,"13033 19 Mile Road, Gowen, MI, 49326",43.24926,-85.32648
633,Side-O-Lake Resort Park,https://www.mhvillage.com/parks/15261, Montcalm ,45,N/A,805,"15301 Lakeshore Drive, Gowen, MI, 49326",43.24926,-85.32648
636,La-E-Ma Land Mobile Home Park,https://www.mhvillage.com/parks/15254, Montcalm ,29,N/A,809,"7825 Cannonsburg Road, Rockford, MI, 49341",43.12562,-85.49424
642,Pine Lakes Mobile Home Park,https://www.mhvillage.com/parks/15993, Lapeer ,163,525,572,"110 Pine Lakes Drive, Lapeer, MI, 48446",43.0454,-83.23808
643,Ideal Villa Mobile Home Park,https://www.mhvillage.com/parks/15302, Lapeer ,168,N/A,573,"3660 South Lapeer Road, Metamora, MI, 48455",42.94319,-83.30183
644,Hunters Creek,https://www.mhvillage.com/parks/15872, Lapeer ,402,330,575,"725 Demille Road, Lapeer, MI, 48446",43.05416,-83.33011
645,River Ridge,https://www.mhvillage.com/parks/30003, Washtenaw ,288,420,1137,"289 Dundee, Saline, MI, 48176",42.14439,-83.81735
646,Crestview Manor,https://www.mhvillage.com/parks/15542, Lapeer ,200,375,577,"1485 Ridgeview Drive, Lapeer, MI, 48446",43.05416,-83.33011
647,Deerfield Pines,https://www.mhvillage.com/parks/15929, Lapeer ,122,350,578,"82 Deerfield Pines Drive, North Branch, MI, 48461",43.21108,-83.22283
648,Kingsbrook Estates,https://www.mhvillage.com/parks/443, Lapeer ,233,N/A,579,"4600 N. Van Dyke Road, Almont, MI, 48003",42.93551,-83.04396
649,Lapeer Meadows,https://www.mhvillage.com/parks/15544, Lapeer ,228,290,580,"1265 Farnsworth Road, Lapeer, MI, 48446",43.05416,-83.33011
650,North Branch Meadows,https://www.mhvillage.com/parks/16007, Lapeer ,127,N/A,581,"6800 Lydia Boulevard, North Branch, MI, 48461",43.21108,-83.22283
651,Sand Hill Estates,https://www.mhvillage.com/parks/15546, Lapeer ,50,N/A,582,"4063 Bowers Road, Attica, MI, 48412",43.06305,-83.16774
652,Victoria Meadows,https://www.mhvillage.com/parks/15963, Lapeer ,130,320,583,"3750 Nash Lane, Dryden, MI, 48428",42.93839,-83.15914
653,Garner Drive Mobile Home Park,https://www.mhvillage.com/parks/15545, Lapeer ,18,N/A,584,"Garner Drive, Imlay City, MI, 48444",43.06429,-83.04903
654,Sterling Estates,https://www.mhvillage.com/parks/15148, Macomb ,760,629,670,"43475 La Grand Boulevard, Sterling Heights, MI, 48314",42.60928,-83.0516
655,Maple Woods,https://www.mhvillage.com/parks/522, Lenawee ,285,415,600,"1550 West Beecher Road, Adrian, MI, 49221",41.89354,-84.06128
656,Hidden River North,https://www.mhvillage.com/parks/15930, Lenawee ,211,N/A,601,"975 Beecher Road, Adrian, MI, 49221",41.89354,-84.06128
657,Round Lake Estates,https://www.mhvillage.com/parks/589, Lenawee ,109,360,602,"787 Stoneham, Manitou Beach, MI, 49253",41.9644,-84.28753
658,Newburg Meadows,https://www.mhvillage.com/parks/369, Lenawee ,135,375,603,"9115 North Union Street, Tecumseh, MI, 49286",42.01141,-83.91696
659,Bean Creek Resort,https://www.mhvillage.com/parks/15405, Lenawee ,72,N/A,604,"9575 Devils Lake Highway, Manitou Beach, MI, 49253",41.97564,-84.27058
660,Hidden River South,https://www.mhvillage.com/parks/16023, Lenawee ,202,N/A,605,"3251 South Adrian Highway, Adrian, MI, 49221",41.89354,-84.06128
661,Coach Light Estates,https://www.mhvillage.com/parks/309, Lenawee ,230,N/A,606,"650 West Adrian Street, Blissfield, MI, 49228",41.81319,-83.86387
662,Country Villa,https://www.mhvillage.com/parks/371, Lenawee ,73,675,611,"12919 Tipton Highway, Clinton, MI, 49236",42.08586,-83.95871
663,Friendly Village Of Adrian,https://www.mhvillage.com/parks/15347, Lenawee ,179,378,607,"1100 South Main Street, Adrian, MI, 49221",41.89354,-84.06128
664,Leffingwell Estates,https://www.mhvillage.com/parks/15401, Lenawee ,70,N/A,608,"595 South Meridian Road, Hudson, MI, 49247",41.85379,-84.33698
665,Water Wheel Community,https://www.mhvillage.com/parks/15345, Lenawee ,172,372,610,"316 West Michigan Avenue, Clinton, MI, 49236",42.08586,-83.95871
666,Raisin Valley Estates,https://www.mhvillage.com/parks/15403, Lenawee ,27,N/A,612,"4897 N. Adrian Hwy, Adrian, MI, 49221",41.95703,-84.00383
667,Water's Edge,https://www.mhvillage.com/parks/110884, Lenawee ,48,N/A,613,"Devils Lake Highway, Manitou Beach, MI, 49253",41.97564,-84.27058
668,Clinton Estates,https://www.mhvillage.com/parks/40692, Lenawee ,30,N/A,614,"1801 West Michigan Avenue, Clinton, MI, 49236",42.08586,-83.95871
669,King Mobile Home Court,https://www.mhvillage.com/parks/15346, Lenawee ,123,N/A,615,"1142 Lansing Street, Adrian, MI, 49221",41.89354,-84.06128
670,Southgate Mobile Park,https://www.mhvillage.com/parks/15400, Lenawee ,48,325,616,"2425 East Us Highway 223, Adrian, MI, 49221",41.87328,-84.0143
671,Adrian Estates,https://www.mhvillage.com/parks/15547, Lenawee ,26,N/A,617,"1003 Lansing Street, Adrian, MI, 49221",41.89354,-84.06128
672,Lee Villa Mobile Home Park,https://www.mhvillage.com/parks/15404, Lenawee ,113,342,618,"2985 Gady Road, Adrian, MI, 49221",41.89354,-84.06128
673,Robinhood Mobile Court,https://www.mhvillage.com/parks/15402, Lenawee ,25,N/A,619,"3180 North Adrian, Adrian, MI, 49221",41.89354,-84.06128
674,Silver Lawn Mobile Park,https://www.mhvillage.com/parks/54881, Lenawee ,N/A,N/A,620,"10891 Cement City Highway, Addison, MI, 49220",42.04354,-84.31813
675,Sylvan Glen Estates,https://www.mhvillage.com/parks/341, Livingston ,476,397,621,"6600 Grand River, Brighton, MI, 48114",42.57775,-83.7528
676,Brighton Village,https://www.mhvillage.com/parks/388, Livingston ,195,N/A,623,"7500 Grand River Rd., Brighton, MI, 48114",42.54329,-83.78787
677,Hartland Meadows,https://www.mhvillage.com/parks/15965, Livingston ,617,525,624,"13634 W Highland Rd, Hartland, MI, 48353",42.6449,-83.71859
678,Burkhart Ridge,https://www.mhvillage.com/parks/15997, Livingston ,306,480,625,"1011 River Line Drive, Howell, MI, 48843",42.57271,-83.91015
679,Howell Estates,https://www.mhvillage.com/parks/15420, Livingston ,455,N/A,626,"515 Mason Road, Howell, MI, 48843",42.60019,-83.94013
680,Cedar River Estates,https://www.mhvillage.com/parks/15421, Livingston ,118,N/A,627,"400 Cedar River Drive, Fowlerville, MI, 48836",42.66427,-84.0605
681,Alan's Park,https://www.mhvillage.com/parks/374, Shiawassee ,32,N/A,1086,"11785 Lansing Road, Durand, MI, 48429",42.89658,-84.00732
682,Grandshire Estates,https://www.mhvillage.com/parks/15715, Livingston ,151,550,629,"851 Willow Street, Fowlerville, MI, 48836",42.66427,-84.0605
683,Lake Chemung Outdoor Resort,https://www.mhvillage.com/parks/16058, Livingston ,335,150,630,"320 South Hughes Road, Howell, MI, 48843",42.57271,-83.91015
685,Woodland Park & Sales,https://www.mhvillage.com/parks/15415, Livingston ,65,400,632,"8005 West Grand River Avenue, Brighton, MI, 48114",42.5435,-83.78799
686,Fairlawn Meadows,https://www.mhvillage.com/parks/384, Livingston ,48,N/A,633,"1701 Fairlawn Road, Howell, MI, 48843",42.57271,-83.91015
687,Fairlane Estates Mobile Home Park,https://www.mhvillage.com/parks/15418, Livingston ,60,N/A,634,"2195 East Grand River, Howell, MI, 48843",42.57271,-83.91015
688,Starlight Trailer Court,https://www.mhvillage.com/parks/15413, Livingston ,48,N/A,635,"7175 Bishop Road, Brighton, MI, 48116",42.50307,-83.76896
689,Brighton Trailer Court,https://www.mhvillage.com/parks/15422, Livingston ,9,N/A,636,"614 Flint Road, Brighton, MI, 48116",42.50307,-83.76896
690,Red Oaks Of Chemung,https://www.mhvillage.com/parks/16032, Livingston ,N/A,N/A,637,"102 East Grand River Avenue, Howell, MI, 48843",42.57271,-83.91015
691,Waldon Woods Family Recreation Resort,https://www.mhvillage.com/parks/16055, Livingston ,N/A,N/A,638,"2975 North Old Us 23, Howell, MI, 48855",42.6469,-83.75867
692,River's Edge,https://www.mhvillage.com/parks/15046, Macomb ,1000,N/A,654,"38000 Le Chateau Blvd, Clinton Township, MI, 48038",42.57442,-82.96078
693,Shelby Forest,https://www.mhvillage.com/parks/256, Macomb ,664,447,656,"13955 Bronte Drive, Shelby Township, MI, 48315",42.67107,-83.00109
694,Shelby West,https://www.mhvillage.com/parks/15708, Macomb ,644,N/A,657,"12277 Conservation Trail, Shelby Township, MI, 48315",42.67107,-83.00109
695,Lafayette Place,https://www.mhvillage.com/parks/15065, Macomb ,254,N/A,658,"21155 Warner, Warren, MI, 48091",42.45129,-83.07388
696,East Village Estates,https://www.mhvillage.com/parks/253, Macomb ,708,N/A,659,"57400 Bedford Blvd., Washington, MI, 48094",42.71725,-83.02236
697,Springbrook Estates,https://www.mhvillage.com/parks/15147, Macomb ,398,675,663,"71400 Van Dyke Road, Romeo, MI, 48065",42.81963,-83.01812
698,Rudgate Manor,https://www.mhvillage.com/parks/15089, Macomb ,931,400,664,"5150 Rudgate Boulevard, Sterling Heights, MI, 48310",42.56452,-83.06894
699,Carriage Way,https://www.mhvillage.com/parks/222, Saint Clair ,798,N/A,1024,"29800 Guilford Circle, Chesterfield, MI, 48051",42.67515,-82.81371
700,Silver Springs,https://www.mhvillage.com/parks/37937, Saint Clair ,547,N/A,1025,"43600 Park Drive West, Clinton Township, MI, 48036",42.59859,-82.91368
701,Rudgate Clinton,https://www.mhvillage.com/parks/302, Macomb ,667,N/A,667,"20475 Foster Drive, Clinton Township, MI, 48036",42.57842,-82.91662
702,Pine Crest Estates,https://www.mhvillage.com/parks/31376, Saint Clair ,214,440,1026,"30086 Pineview Circle, Chesterfield, MI, 48051",42.67515,-82.81371
703,Dequindre Estates,https://www.mhvillage.com/parks/15707, Macomb ,303,N/A,669,"2017 Shirewood Dr., Shelby Township, MI, 48317",42.65294,-83.09154
704,Westbridge Manor,https://www.mhvillage.com/parks/251, Saint Clair ,1446,500,1028,"45301 Chateau Thierry Blvd., Macomb, MI, 48044",42.65061,-82.92604
705,Glennwood Village,https://www.mhvillage.com/parks/15233, Macomb ,147,659,677,"2526 Morrissey Road, Warren, MI, 48091",42.46934,-83.05494
706,Millstone Pond,https://www.mhvillage.com/parks/32594, Saint Clair ,263,417,1030,"37781 Sandstone Trail, Lenox, MI, 48048",42.74174,-82.79775
707,Fairchild Lake,https://www.mhvillage.com/parks/15138, Saint Clair ,300,485,1034,"49645 Au Lac Road, Chesterfield, MI, 48051",42.67515,-82.81371
708,Willow Point,https://www.mhvillage.com/parks/33956, Saint Clair ,284,381,1037,"43400 Lenfesty Drive, Harrison Township, MI, 48045",42.61222,-82.85886
709,Westbrook,https://www.mhvillage.com/parks/126708, Saint Clair ,N/A,N/A,1038,"45013 Catalpa Blvd., Macomb, MI, 48044",42.6296,-82.90159
710,Leslie's Mobile Home Village,https://www.mhvillage.com/parks/15067, Macomb ,166,N/A,678,"25214 Gratiot Avenue, Roseville, MI, 48066",42.50967,-82.93596
711,Riverbrook,https://www.mhvillage.com/parks/224, Saint Clair ,390,N/A,1041,"59477 Hardy Lane, New Haven, MI, 48048",42.74174,-82.79775
712,Parkway Village LLC,https://www.mhvillage.com/parks/15090, Saint Clair ,242,347,1044,"23500 South Keystone Way, Clinton Township, MI, 48036",42.59859,-82.91368
716,Richmond Place,https://www.mhvillage.com/parks/15145, Saint Clair ,117,N/A,1035,"36401 Division Road, Richmond, MI, 48062",42.80925,-82.75075
735,River Haven Estates,https://www.mhvillage.com/parks/15826, Mason ,65,N/A,705,"24 Caberfae Highway, Manistee, MI, 49660",44.23921,-86.19861
736,East Lake Estates,https://www.mhvillage.com/parks/16019, Mason ,197,N/A,706,"829 Oregon Avenue, Manistee, MI, 49660",44.23921,-86.19861
737,The Bluffs on Manistee Lake,https://www.mhvillage.com/parks/105890, Mason ,100,N/A,708,"956 Tennessee Avenue, Manistee, MI, 49660",44.23582,-86.29581
738,Forest Pines Manistee,https://www.mhvillage.com/parks/15591, Mason ,75,375,709,"1525 West County Line Road, Manistee, MI, 49660",44.23921,-86.19861
739,Tamarac Village,https://www.mhvillage.com/parks/470, Mason ,293,N/A,699,"2875 North Lakeshore Drive, Ludington, MI, 49431",43.96235,-86.39777
740,Ludington Mobile Home Park,https://www.mhvillage.com/parks/15589, Mason ,68,N/A,700,"5040 Rasmussen Road, Ludington, MI, 49431",43.96235,-86.39777
741,Hidden Forest,https://www.mhvillage.com/parks/30045, Mason ,116,407,701,"3626 West Hidden Forest Drive, Ludington, MI, 49431",43.96235,-86.39777
742,Holiday Village Of Scottville,https://www.mhvillage.com/parks/15590, Mason ,150,N/A,702,"1701 West Us Highway 10-31, Scottville, MI, 49454",43.95513,-86.32162
743,Heritage Hills Mobile Home Estates,https://www.mhvillage.com/parks/15593, Mason ,30,N/A,703,"3677 South Pere Marquette, Ludington, MI, 49431",43.96235,-86.39777
744,Laman's Landing Resort,https://www.mhvillage.com/parks/15592, Mason ,32,N/A,704,"6100 North Beaune Road, Ludington, MI, 49431",43.96235,-86.39777
745,Lakewood Mobile Home Park,https://www.mhvillage.com/parks/15618, Oceana ,40,300,896,"408 East Sands Street, Pentwater, MI, 49449",43.79434,-86.37572
746,Big Rapids Mobile Home Court,https://www.mhvillage.com/parks/15579, Mecosta ,135,255,710,"606 Bjornson Street, Big Rapids, MI, 49307",43.7051,-85.51279
747,Country Manor Estates,https://www.mhvillage.com/parks/15999, Mecosta ,78,300,711,"18500 Northland Drive, Big Rapids, MI, 49307",43.7051,-85.51279
748,Holiday Terrace Mobile Home Park,https://www.mhvillage.com/parks/15594, Mecosta ,71,N/A,712,"10845 Percy Lane, Mecosta, MI, 49332",43.63724,-85.24514
749,Parks Place Estates,https://www.mhvillage.com/parks/528, Mecosta ,29,300,713,"14065 30th Avenue, Remus, MI, 49340",43.6693,-85.14673
750,Sunset Shores,https://www.mhvillage.com/parks/76392, Mecosta ,80,N/A,714,"10406 Pierce Rd., Stanwood, MI, 49346",43.59275,-85.40347
751,Haven View Mobile Home Court,https://www.mhvillage.com/parks/15596, Mecosta ,80,N/A,715,"18505 Northland Drive, Big Rapids, MI, 49307",43.7051,-85.51279
752,College Park Mobile Village,https://www.mhvillage.com/parks/15600, Mecosta ,100,N/A,716,"1111 Catherine Street, Big Rapids, MI, 49307",43.7051,-85.51279
753,Country Mobile Home Court,https://www.mhvillage.com/parks/15629, Osceola ,20,N/A,927,"6420 East 13 Mile Road, Paris, MI, 49338",43.7569,-85.60857
754,Circle Drive Mobile Home Park,https://www.mhvillage.com/parks/15597, Mecosta ,50,N/A,718,"12380 185th Avenue, Big Rapids, MI, 49307",43.64786,-85.45304
755,Hunter's Creek,https://www.mhvillage.com/parks/476, Mecosta ,50,N/A,719,"11334 120th Avenue, Rodney, MI, 49342",43.63143,-85.32412
756,Forest Hills Park,https://www.mhvillage.com/parks/15598, Mecosta ,N/A,N/A,720,"14400 Northland Drive, Big Rapids, MI, 49307",43.7051,-85.51279
757,Round Lake Resort Mobile Home Park,https://www.mhvillage.com/parks/15599, Mecosta ,8,N/A,721,"11133 Eleven Mile Road, Mecosta, MI, 49332",43.63724,-85.24514
758,Buck's Mobile Home Park,https://www.mhvillage.com/parks/15595, Mecosta ,N/A,N/A,722,"21965 8 Mile Road, Stanwood, MI, 49346",43.59275,-85.40347
759,Lackie's Birch Haven Subdivision,https://www.mhvillage.com/parks/16042, Osceola ,N/A,N/A,928,"Airstrip Road, Barryton, MI, 49305",43.75187,-85.14328
760,Roger Heights Mobile Home Park,https://www.mhvillage.com/parks/52249, Mecosta ,N/A,N/A,724,"11299 Riverside Drive, Stanwood, MI, 49346",43.59275,-85.40347
761,Bayside Mobile Estates,https://www.mhvillage.com/parks/15843, Menominee ,97,N/A,725,"3400 - 10th Street, Menominee, MI, 49858",45.12976,-87.61257
762,Cedar Ridge Mobile Home Park,https://www.mhvillage.com/parks/15845, Menominee ,75,N/A,726,"5000 13th Street, Menominee, MI, 49858",45.14611,-87.61748
763,Forest Glen,https://www.mhvillage.com/parks/29603, Menominee ,16,N/A,727,"450 Myrtle Street, Marinette, WI, 54143",45.09182,-87.6466
764,Foxx Glen,https://www.mhvillage.com/parks/28731, Menominee ,76,N/A,728,"3920 Hall Ave, Marinette, WI, 54143",45.09188,-87.67188
765,Golden Sands Mobile Home Court,https://www.mhvillage.com/parks/27024, Menominee ,N/A,N/A,729,"3400 Pierce Ave, Marinette, WI, 54143",45.09188,-87.67188
766,Country Meadows Mobile Home Park,https://www.mhvillage.com/parks/26981, Menominee ,220,N/A,730,"3415 Pierce Ave, Marinette, WI, 54143",45.09188,-87.67188
767,Cramer Estates,https://www.mhvillage.com/parks/31291, Menominee ,N/A,N/A,731,"Merchant, Marinette, WI, 54143",45.09188,-87.67188
768,Marinette Mobile Home Court,https://www.mhvillage.com/parks/36172, Menominee ,N/A,N/A,732,"1596 Marinette Ave, Marinette, WI, 54143",45.09188,-87.67188
769,Science City,https://www.mhvillage.com/parks/337, Midland ,171,N/A,733,"3823 Bay City Road, Midland, MI, 48642",43.60536,-84.18068
770,Alpine Village,https://www.mhvillage.com/parks/15379, Midland ,283,N/A,735,"3601 Alpine Drive, Midland, MI, 48642",43.70512,-84.23785
771,Old Oak Trails Estates,https://www.mhvillage.com/parks/15955, Midland ,203,357,736,"1661 North Old Oak Trail, Sanford, MI, 48657",43.71958,-84.40022
772,Arlington Manor,https://www.mhvillage.com/parks/15378, Midland ,100,285,737,"222 Rockwell Dr, Midland, MI, 48642",43.70512,-84.23785
773,Coleman Mobile Home Park,https://www.mhvillage.com/parks/15381, Midland ,58,250,738,"330 South 3rd Street, Coleman, MI, 48618",43.75117,-84.58959
774,Oakside Mobile Home Park,https://www.mhvillage.com/parks/409, Midland ,142,285,739,"2752 West North Union Road, Midland, MI, 48642",43.70512,-84.23785
775,Stolkholm Forest Village,https://www.mhvillage.com/parks/15380, Midland ,121,285,740,"800 West Mier Road, Sanford, MI, 48657",43.71958,-84.40022
776,Victoria Woods,https://www.mhvillage.com/parks/15450, Midland ,52,270,741,"2574 West Midland Road, Midland, MI, 48642",43.70512,-84.23785
777,Maple Grove Village,https://www.mhvillage.com/parks/15340, Midland ,140,N/A,742,"400 Kuipers Drive, Midland, MI, 48642",43.70512,-84.23785
778,Countryside Manor,https://www.mhvillage.com/parks/361, Midland ,63,N/A,743,"47 North Meridian Road, Midland, MI, 48640",43.58296,-84.35133
779,Rumbaugh Estates,https://www.mhvillage.com/parks/362, Midland ,59,N/A,744,"1404 Rumbaugh, Midland, MI, 48642",43.70512,-84.23785
780,Lakeview Trailer Park,https://www.mhvillage.com/parks/15382, Midland ,18,N/A,745,"320 Cedar Street, Sanford, MI, 48657",43.71958,-84.40022
781,"Evergreen Whispering Pines MHP, LLC",https://www.mhvillage.com/parks/42428, Midland ,105,550,746,"227 W. Olson Road, Midland, MI, 48640",43.58296,-84.35133
782,Woodview Mobile Home Park,https://www.mhvillage.com/parks/338, Midland ,N/A,N/A,748,"257 West Olson Road, Midland, MI, 48640",43.58296,-84.35133
783,Pine Court,https://www.mhvillage.com/parks/29402, Osceola ,15,N/A,925,"5340 West Stoney Corners Road, Mc Bain, MI, 49657",44.22911,-85.17152
784,Sandy Oaks Resort,https://www.mhvillage.com/parks/105535, Roscommon ,227,N/A,988,"2757 Owens Dr, Houghton Lake, MI, 48629",44.29882,-84.73407
785,Cadillac Leisure Mobile Home Park,https://www.mhvillage.com/parks/15722, Wexford ,98,N/A,1184,"1101-1151 6th Stt, Cadillac, MI, 49601",44.25966,-85.42514
786,Whispering Oaks Mobile Home Park,https://www.mhvillage.com/parks/15862, Roscommon ,26,N/A,991,"3517 West Houghton Lake Drive, Houghton Lake, MI, 48629",44.29882,-84.73407
787,Mounds Mobile Home Park,https://www.mhvillage.com/parks/54551, Roscommon ,N/A,N/A,994,"130 Mounds Trail, Houghton Lake, MI, 48629",44.29882,-84.73407
788,North Shore Trailer Park,https://www.mhvillage.com/parks/15865, Roscommon ,N/A,N/A,995,"8687 East Houghton Lake Road, Houghton Lake, MI, 48629",44.29882,-84.73407
789,Poplar's Resort,https://www.mhvillage.com/parks/15669, Roscommon ,N/A,N/A,997,"10360 West Shore Dr, Houghton Lake, MI, 48629",44.29882,-84.73407
790,Frenchtown Villa / Elizabeth Woods,https://www.mhvillage.com/parks/15319, Monroe ,1149,N/A,764,"1250 Paree, Newport, MI, 48166",41.97734,-83.29112
791,Meadowbrook Estates,https://www.mhvillage.com/parks/331, Monroe ,453,N/A,765,"1250 Strandwyck, Monroe, MI, 48161",41.91011,-83.42683
792,Kimberly Estates,https://www.mhvillage.com/parks/329, Monroe ,387,N/A,766,"7769 Kimberly Dr, Newport, MI, 48166",41.99027,-83.36667
793,Newport Farms,https://www.mhvillage.com/parks/30588, Monroe ,513,492,768,"9059 W. Timberview Dr., Newport, MI, 48166",42.00771,-83.33446
794,Raisin Ridge,https://www.mhvillage.com/parks/15994, Monroe ,404,N/A,772,"801 Franklin Blvd, Monroe, MI, 48161",41.93203,-83.46824
795,Inverness Mobile Home Community,https://www.mhvillage.com/parks/415, Monroe ,518,N/A,769,"6230 Lewis Avenue, Temperance, MI, 48182",41.79069,-83.58813
796,Oakridge Estates,https://www.mhvillage.com/parks/15737, Monroe ,621,N/A,770,"75 Briarwood Trail, Monroe, MI, 48161",41.89171,-83.40729
797,Pleasantville MHC,https://www.mhvillage.com/parks/15337, Monroe ,152,N/A,773,"1045 Nadeau Road, Monroe, MI, 48162",41.94976,-83.44536
798,Country Heritage,https://www.mhvillage.com/parks/15969, Monroe ,213,N/A,774,"771 Mary Jean Court, Dundee, MI, 48131",41.94859,-83.65202
799,The Orchards,https://www.mhvillage.com/parks/33834, Monroe ,630,483,771,"3600 Townsquare Boulevard, Carleton, MI, 48117",42.03778,-83.42102
800,Carleton Mobile Home Park,https://www.mhvillage.com/parks/15338, Monroe ,228,385,775,"12500 Jones Rd., Carleton, MI, 48117",42.05671,-83.38965
801,Dundee Meadows,https://www.mhvillage.com/parks/15951, Monroe ,80,450,776,"202 Emerald Circle, Dundee, MI, 48131",41.96234,-83.66653
802,Elizabeth Woods,https://www.mhvillage.com/parks/105129, Monroe ,620,553,777,"1250 Paree, Newport, MI, 48166",42.00351,-83.35345
803,Flat Rock Village,https://www.mhvillage.com/parks/15485, Monroe ,332,N/A,778,"11150 Telegraph Road, Carleton, MI, 48117",42.03778,-83.42102
804,Hidden Creek,https://www.mhvillage.com/parks/15937, Monroe ,351,379,779,"6400 South Dixie Highway, Erie, MI, 48133",41.78609,-83.48738
805,Mill Race Shores Manufactured Housing Community,https://www.mhvillage.com/parks/15941, Monroe ,97,N/A,780,"563 Allen Road, Milan, MI, 48160",42.08375,-83.67022
806,Northtowne Meadows,https://www.mhvillage.com/parks/15734, Monroe ,386,450,781,"6255 Telegraph Road, Erie, MI, 48133",41.78609,-83.48738
807,Willow Green,https://www.mhvillage.com/parks/15336, Monroe ,429,385,782,"2033 North Outer Drive, Monroe, MI, 48161",41.91264,-83.47301
808,Yorkshire Manor,https://www.mhvillage.com/parks/15309, Monroe ,280,356,783,"1205 York Blvd., Carleton, MI, 48117",42.03778,-83.42102
809,Shamrock Mobile Home Park,https://www.mhvillage.com/parks/15480, Monroe ,54,N/A,784,"1811 North Telegraph Road, Monroe, MI, 48162",41.94976,-83.44536
810,Sunny South Villa,https://www.mhvillage.com/parks/15479, Monroe ,68,N/A,785,"15377 South Telegraph, Monroe, MI, 48161",41.91264,-83.47301
811,Huron River Mobile Home Park,https://www.mhvillage.com/parks/15750, Monroe ,89,N/A,786,"8025 South Huron River Road, South Rockwood, MI, 48179",42.05419,-83.26085
817,Village Trails,https://www.mhvillage.com/parks/15979, Montcalm ,100,N/A,789,"518 Hickory Ln., Howard City, MI, 49329",43.3823,-85.47568
818,Brookside Mobile Home Sites,https://www.mhvillage.com/parks/15657, Montcalm ,14,N/A,791,"7875 Garlock Road, Carson City, MI, 48811",43.18769,-84.85692
819,Creekview Mobile Home Park,https://www.mhvillage.com/parks/15654, Montcalm ,84,375,792,"400 North Walnut, Greenville, MI, 48838",43.20853,-85.27232
820,Edmore Estates,https://www.mhvillage.com/parks/492, Montcalm ,18,N/A,793,"525 West Gilson Street, Edmore, MI, 48829",43.41448,-85.01942
821,Stanton Mobile Home Community,https://www.mhvillage.com/parks/15656, Montcalm ,50,N/A,796,"101 Rachael, Stanton, MI, 48888",43.31444,-85.10173
822,Stoney Lake Mobile Home Park,https://www.mhvillage.com/parks/15652, Montcalm ,14,325,797,"2650 Stoney Lake Blvd., Stanton, MI, 48888",43.25525,-85.07728
823,Tamarack Pines Estates,https://www.mhvillage.com/parks/15920, Montcalm ,80,N/A,798,"9555 Maple Hill Road, Howard City, MI, 49329",43.40285,-85.50268
824,Thunderhawk Resort,https://www.mhvillage.com/parks/83549, Montcalm ,50,330,799,"4261 N Bass Lake Rd, Pierson, MI, 49339",43.3378,-85.47797
825,Pond View Estates,https://www.mhvillage.com/parks/472, Montcalm ,90,N/A,801,"613 North Edgeview Street, Greenville, MI, 48838",43.20853,-85.27232
826,Sheridan Mobile Home Park,https://www.mhvillage.com/parks/15653, Montcalm ,26,N/A,802,"453 East Condensery Road, Sheridan, MI, 48884",43.21177,-85.05864
827,Greenbrier Estates,https://www.mhvillage.com/parks/15655, Montcalm ,57,N/A,803,"11345 South Greenville Road, Greenville, MI, 48838",43.20853,-85.27232
828,Pondview Manufactured Home Community,https://www.mhvillage.com/parks/104897, Montcalm ,93,N/A,804,"621 North Walnut Street, Greenville, MI, 48838",43.18644,-85.24159
829,Sandy Creek,https://www.mhvillage.com/parks/15938, Montcalm ,N/A,N/A,806,"Tbd, Crystal, MI, 48818",43.26309,-84.91473
830,White Oak Acres,https://www.mhvillage.com/parks/16017, Montcalm ,34,N/A,807,"Wood Road, Sheridan, MI, 48884",43.21177,-85.05864
831,Tamarack Meadows,https://www.mhvillage.com/parks/32162, Montcalm ,135,495,808,"1601 Hiddenview Dr, Lakeview, MI, 48850",43.44553,-85.27591
835,Hunt Creek Mobile Home Court,https://www.mhvillage.com/parks/15899, Presque Isle ,N/A,N/A,985,"600 North Elizabeth, Hillman, MI, 49746",45.04133,-83.94273
836,City Of Rose City Trailer Park,https://www.mhvillage.com/parks/15847, Oscoda ,N/A,N/A,939,"310 North Williams Street, Rose City, MI, 48654",44.47283,-84.12718
837,Presque Isle Estates,https://www.mhvillage.com/parks/575, Presque Isle ,N/A,N/A,978,"1605 Morley Drive, Rogers City, MI, 49779",45.40277,-83.77896
838,Whispering Pines Trailer Park,https://www.mhvillage.com/parks/15850, Oscoda ,N/A,N/A,930,"236 South Mount Tom Road, Mio, MI, 48647",44.68578,-84.06082
839,Apple Carr Village,https://www.mhvillage.com/parks/305, Muskegon ,529,N/A,832,"516 South Courtland Lane, Muskegon, MI, 49442",43.24349,-86.12583
840,Clover Estates Mobile Home Community,https://www.mhvillage.com/parks/407, Muskegon ,223,N/A,833,"3239 Clover Parkway, Muskegon, MI, 49444",43.16883,-86.19416
841,Egelcraft,https://www.mhvillage.com/parks/15871, Muskegon ,458,N/A,834,"2129 Arrowhead Drive, Muskegon, MI, 49442",43.2142,-86.14254
842,Park Meadows,https://www.mhvillage.com/parks/15739, Muskegon ,300,427,835,"210 East Giles, North Muskegon, MI, 49445",43.29868,-86.27285
843,"Pine Island Recreation Park, Inc.",https://www.mhvillage.com/parks/15440, Muskegon ,30,N/A,836,"3768 Pine Island Drive, Lot 9, Holton, MI, 49425",43.41283,-86.14919
844,Derby Brothers Company,https://www.mhvillage.com/parks/70655, Muskegon ,30,325,837,"3774 Pine Island Drive, Holton, MI, 49425",43.41298,-86.14933
845,Bel Air Estates,https://www.mhvillage.com/parks/15315, Muskegon ,116,395,838,"2481 West Sherman Boulevard, Muskegon, MI, 49441",43.1869,-86.27287
846,Norton Shores,https://www.mhvillage.com/parks/405, Muskegon ,656,N/A,839,"3223 Bailey Street, Muskegon, MI, 49444",43.19381,-86.21534
847,Arlington Woods,https://www.mhvillage.com/parks/307, Muskegon ,659,335,840,"3785 Evanston Avenue, Muskegon, MI, 49442",43.2459,-86.14177
848,Cricklewood Court,https://www.mhvillage.com/parks/15293, Muskegon ,62,695,849,"23604 36th Avenue, Ravenna, MI, 49451",43.19947,-85.87744
849,Crystal Downs MHC,https://www.mhvillage.com/parks/15312, Muskegon ,104,525,841,"2701 Crystal Lake Road, Whitehall, MI, 49461",43.38689,-86.3276
850,Nomad MHC,https://www.mhvillage.com/parks/15441, Muskegon ,111,N/A,842,"2701 Huizenga Street, Muskegon, MI, 49444",43.16883,-86.19416
851,Oaks Mobile Home Park,https://www.mhvillage.com/parks/335, Muskegon ,172,N/A,843,"3240 Getty Street, Muskegon, MI, 49444",43.19449,-86.22454
852,Emerald Estates,https://www.mhvillage.com/parks/15622, Newaygo ,30,345,861,"238 Jones Street, Grant, MI, 49327",43.33695,-85.84536
853,Hidden Oaks MHC,https://www.mhvillage.com/parks/194, Muskegon ,104,N/A,845,"14787 Apple Drive, Fruitport, MI, 49415",43.15305,-86.12557
854,Timberline Estates Mobile Home Park,https://www.mhvillage.com/parks/15548, Muskegon ,302,N/A,846,"2315 Oak Street, Twin Lake, MI, 49457",43.36803,-86.14947
855,Edgewood Mobile Park,https://www.mhvillage.com/parks/15445, Muskegon ,65,N/A,847,"7433 Whitehall Road, Whitehall, MI, 49461",43.38689,-86.3276
856,West Pine Island Manufactured Home Community,https://www.mhvillage.com/parks/3977, Muskegon ,30,N/A,848,"3534 Pinewood Trail, Holton, MI, 49425",43.44293,-86.11695
857,Maple Island Estates,https://www.mhvillage.com/parks/15443, Muskegon ,129,N/A,850,"7311 White Road, Muskegon, MI, 49442",43.2459,-86.14177
858,Mona Lake Mobile Home Park,https://www.mhvillage.com/parks/15442, Muskegon ,67,N/A,851,"3527 Hoyt Street, Muskegon, MI, 49444",43.16883,-86.19416
859,West Pine Island,https://www.mhvillage.com/parks/46519, Muskegon ,30,N/A,852,"1091 East Laketon, Muskegon, MI, 49442",43.2459,-86.14177
860,Crestview Estates MHC,https://www.mhvillage.com/parks/15444, Muskegon ,N/A,N/A,853,"3290 Getty Street, Muskegon, MI, 49444",43.16883,-86.19416
863,Brookhaven Estates,https://www.mhvillage.com/parks/15972, Newaygo ,178,318,854,"622 South Division Street, Newaygo, MI, 49337",43.43292,-85.69911
864,Brooks Lake Mobile Home Park,https://www.mhvillage.com/parks/16002, Newaygo ,15,N/A,855,"2263 Spruell, Newaygo, MI, 49337",43.43292,-85.69911
865,Country View Estates,https://www.mhvillage.com/parks/15961, Newaygo ,134,N/A,856,"401 Market Street, Fremont, MI, 49412",43.47283,-85.96834
866,Fremont Hills Mobile Home Park,https://www.mhvillage.com/parks/15625, Newaygo ,58,295,857,"927 Lake Drive, Fremont, MI, 49412",43.46012,-85.91641
868,Meadowview Village,https://www.mhvillage.com/parks/15624, Newaygo ,86,280,858,"1307 Locust Street, Fremont, MI, 49412",43.46012,-85.91641
869,Rob-Ann Mobile Home Court,https://www.mhvillage.com/parks/15623, Newaygo ,84,260,859,"1215 Locust Street, Fremont, MI, 49412",43.46012,-85.91641
870,Lake Forest Park,https://www.mhvillage.com/parks/15627, Newaygo ,70,N/A,862,"9502 South 2nd Street, Grant, MI, 49327",43.38183,-85.77775
871,Leisure Time,https://www.mhvillage.com/parks/51641, Newaygo ,94,N/A,863,"4799 South Spruce Avenue, White Cloud, MI, 49349",43.59664,-85.76073
872,Four Seasons Trailer Park,https://www.mhvillage.com/parks/15626, Newaygo ,56,N/A,864,"3531 Antor, Newaygo, MI, 49337",43.43292,-85.69911
873,Maple Lane Mobile Home Park,https://www.mhvillage.com/parks/485, Newaygo ,30,N/A,865,"65 South North Street, White Cloud, MI, 49349",43.59664,-85.76073
874,Sportsman Park,https://www.mhvillage.com/parks/30405, Newaygo ,75,N/A,866,"2500 Sportsman Drive, White Cloud, MI, 49349",43.59664,-85.76073
875,Zmrzlik Mobile Home Park,https://www.mhvillage.com/parks/52252, Newaygo ,N/A,N/A,867,"277 Echo Drive, White Cloud, MI, 49349",43.59664,-85.76073
876,The Woodlands,https://www.mhvillage.com/parks/15072, Oakland ,375,N/A,869,"1441 W. Romeo Rd., Oakland Township, MI, 48363",42.79891,-83.16643
877,Sashabaw Meadows,https://www.mhvillage.com/parks/200, Oakland ,511,N/A,871,"4359 Dogwood Boulevard, Clarkston, MI, 48348",42.75994,-83.41043
878,Orion Lakes,https://www.mhvillage.com/parks/15176, Oakland ,423,N/A,873,"47 Bluebird Hill, Orion, MI, 48359",42.72557,-83.27255
879,Ridgewood,https://www.mhvillage.com/parks/15073, Oakland ,500,390,874,"3331 Stoneybrook Drive, Milford, MI, 48380",42.60998,-83.66783
880,White Lake,https://www.mhvillage.com/parks/15178, Oakland ,315,511,875,"1415 Fisk Road, White Lake, MI, 48386",42.65948,-83.47848
881,Highland Greens Estates,https://www.mhvillage.com/parks/15083, Oakland ,907,N/A,876,"2377 North Milford Road, Highland, MI, 48357",42.65963,-83.61861
882,Childs Lake Estates,https://www.mhvillage.com/parks/176, Oakland ,619,612,877,"4377 Old Plank Road, Milford, MI, 48381",42.55917,-83.60581
883,Kensington Place,https://www.mhvillage.com/parks/15063, Oakland ,488,614,878,"60501 Grand River, New Hudson, MI, 48165",42.49632,-83.62307
